{
"type": "FeatureCollection",
"crs": { "type": "name", "properties": { "name": "urn:ogc:def:crs:OGC:1.3:CRS84" } },
"features": [
{ "type": "Feature", "properties": { "PKID": 0, "housePrice": 998413.0, "postCode": "tq43519", "energyRating": null, "surveyTime": null, "streetName": "School Street" }, "geometry": { "type": "Point", "coordinates": [ 2.3664239922008, 48.860905992462207 ] } },
{ "type": "Feature", "properties": { "PKID": 1, "housePrice": 2025433.0, "postCode": null, "energyRating": "E", "surveyTime": "2024-10-10T22:38:01", "streetName": "Silver Street" }, "geometry": null },
{ "type": "Feature", "properties": { "PKID": 2, "housePrice": 1695782.0, "postCode": "RJ17195", "energyRating": null, "surveyTime": "2025-06-17T14:45:33", "streetName": "Shady Lane" }, "geometry": { "type": "Point", "coordinates": [ 2.363429878478, 48.861117121858889 ] } },
{ "type": "Feature", "properties": { "PKID": 3, "housePrice": null, "postCode": "TW86887", "energyRating": null, "surveyTime": "2022-08-23T09:44:17", "streetName": "Tanglewood Drive" }, "geometry": null },
{ "type": "Feature", "properties": { "PKID": 4, "housePrice": 638614.0, "postCode": "nw54313", "energyRating": "A", "surveyTime": null, "streetName": "Fourth Street" }, "geometry": { "type": "Point", "coordinates": [ 2.368589191501655, 48.862519671651221 ] } },
{ "type": "Feature", "properties": { "PKID": 5, "housePrice": 1340581.0, "postCode": null, "energyRating": "C", "surveyTime": null, "streetName": "Walnut Street" }, "geometry": { "type": "Point", "coordinates": [ 2.361891083926458, 48.864028782186608 ] } },
{ "type": "Feature", "properties": { "PKID": 6, "housePrice": null, "postCode": "Pk23489", "energyRating": "B", "surveyTime": null, "streetName": "Meadow Lane" }, "geometry": null },
{ "type": "Feature", "properties": { "PKID": 7, "housePrice": null, "postCode": null, "energyRating": null, "surveyTime": "2024-08-14T04:16:36", "streetName": "Oak Street" }, "geometry": null },
{ "type": "Feature", "properties": { "PKID": 8, "housePrice": null, "postCode": null, "energyRating": "A", "surveyTime": null, "streetName": "Valleyview Drive" }, "geometry": null },
{ "type": "Feature", "properties": { "PKID": 9, "housePrice": 1508185.0, "postCode": "sS69672", "energyRating": null, "surveyTime": "2023-02-04T22:26:44", "streetName": "Prospect Avenue" }, "geometry": null },
{ "type": "Feature", "properties": { "PKID": 10, "housePrice": null, "postCode": null, "energyRating": "A", "surveyTime": null, "streetName": "River Road" }, "geometry": null },
{ "type": "Feature", "properties": { "PKID": 11, "housePrice": null, "postCode": "ZT79837", "energyRating": "D", "surveyTime": "2023-10-19T22:16:14", "streetName": "Clover Street" }, "geometry": null },
{ "type": "Feature", "properties": { "PKID": 12, "housePrice": 291756.0, "postCode": null, "energyRating": "E", "surveyTime": null, "streetName": "Garden Street" }, "geometry": { "type": "Point", "coordinates": [ 2.373133125792359, 48.861926394531125 ] } },
{ "type": "Feature", "properties": { "PKID": 13, "housePrice": null, "postCode": null, "energyRating": null, "surveyTime": null, "streetName": "Pleasant Street" }, "geometry": { "type": "Point", "coordinates": [ 2.372470111751591, 48.860453998814556 ] } },
{ "type": "Feature", "properties": { "PKID": 14, "housePrice": 1876342.0, "postCode": "Lq60451", "energyRating": null, "surveyTime": "2024-07-08T22:51:59", "streetName": "Walnut Street" }, "geometry": null },
{ "type": "Feature", "properties": { "PKID": 15, "housePrice": 2489936.0, "postCode": null, "energyRating": "D", "surveyTime": "2023-08-25T09:43:29", "streetName": "Lake Drive" }, "geometry": null },
{ "type": "Feature", "properties": { "PKID": 16, "housePrice": null, "postCode": "Ho80473", "energyRating": null, "surveyTime": "2022-10-29T20:36:54", "streetName": "Park Street" }, "geometry": null },
{ "type": "Feature", "properties": { "PKID": 17, "housePrice": null, "postCode": "pA59038", "energyRating": null, "surveyTime": null, "streetName": "Ash Street" }, "geometry": null },
{ "type": "Feature", "properties": { "PKID": 18, "housePrice": null, "postCode": null, "energyRating": "B", "surveyTime": null, "streetName": "Third Street" }, "geometry": { "type": "Point", "coordinates": [ 2.361355301641393, 48.859898655850941 ] } },
{ "type": "Feature", "properties": { "PKID": 19, "housePrice": 356046.0, "postCode": null, "energyRating": null, "surveyTime": null, "streetName": "Maple Drive" }, "geometry": null },
{ "type": "Feature", "properties": { "PKID": 20, "housePrice": 2273624.0, "postCode": null, "energyRating": null, "surveyTime": "2025-08-28T21:42:35", "streetName": "Mountain Road" }, "geometry": null },
{ "type": "Feature", "properties": { "PKID": 21, "housePrice": null, "postCode": null, "energyRating": "F", "surveyTime": "2024-08-14T13:50:13", "streetName": "Clover Street" }, "geometry": null },
{ "type": "Feature", "properties": { "PKID": 22, "housePrice": null, "postCode": "XB66646", "energyRating": "C", "surveyTime": "2024-07-02T07:04:49", "streetName": "Ash Street" }, "geometry": null },
{ "type": "Feature", "properties": { "PKID": 23, "housePrice": 2062947.0, "postCode": null, "energyRating": null, "surveyTime": "2024-06-08T03:40:42", "streetName": "Walnut Avenue" }, "geometry": { "type": "Point", "coordinates": [ 2.363572628740544, 48.852716050876218 ] } },
{ "type": "Feature", "properties": { "PKID": 24, "housePrice": 1343772.0, "postCode": "oZ88909", "energyRating": null, "surveyTime": "2022-07-25T11:44:21", "streetName": "Park Place" }, "geometry": { "type": "Point", "coordinates": [ 2.366941874925543, 48.86547276880593 ] } },
{ "type": "Feature", "properties": { "PKID": 25, "housePrice": null, "postCode": "Hv78806", "energyRating": null, "surveyTime": null, "streetName": "Magnolia Street" }, "geometry": { "type": "Point", "coordinates": [ 2.372331134542242, 48.867149205880132 ] } },
{ "type": "Feature", "properties": { "PKID": 26, "housePrice": null, "postCode": "Rv69425", "energyRating": "E", "surveyTime": null, "streetName": "Pine Street" }, "geometry": null },
{ "type": "Feature", "properties": { "PKID": 27, "housePrice": 1517664.0, "postCode": "Cl05916", "energyRating": "A", "surveyTime": null, "streetName": "Evergreen Avenue" }, "geometry": { "type": "Point", "coordinates": [ 2.365116262757715, 48.853659864475034 ] } },
{ "type": "Feature", "properties": { "PKID": 28, "housePrice": 1231856.0, "postCode": null, "energyRating": "B", "surveyTime": null, "streetName": "Tanglewood Drive" }, "geometry": { "type": "Point", "coordinates": [ 2.374557384469732, 48.866053373761105 ] } },
{ "type": "Feature", "properties": { "PKID": 29, "housePrice": 672197.0, "postCode": "Zz35409", "energyRating": "C", "surveyTime": "2025-04-24T11:03:53", "streetName": "Morningview Drive" }, "geometry": null },
{ "type": "Feature", "properties": { "PKID": 30, "housePrice": null, "postCode": null, "energyRating": "C", "surveyTime": "2024-07-22T12:33:51", "streetName": "Park Street" }, "geometry": { "type": "Point", "coordinates": [ 2.369168117843263, 48.861601974516987 ] } },
{ "type": "Feature", "properties": { "PKID": 31, "housePrice": null, "postCode": null, "energyRating": "B", "surveyTime": null, "streetName": "Lake Drive" }, "geometry": { "type": "Point", "coordinates": [ 2.378393429490491, 48.857921742942104 ] } },
{ "type": "Feature", "properties": { "PKID": 32, "housePrice": null, "postCode": "MK09028", "energyRating": "A", "surveyTime": null, "streetName": "Garden Street" }, "geometry": { "type": "Point", "coordinates": [ 2.363649333297853, 48.867235204037677 ] } },
{ "type": "Feature", "properties": { "PKID": 33, "housePrice": 1337324.0, "postCode": null, "energyRating": "A", "surveyTime": "2022-12-04T23:43:30", "streetName": "Brook Drive" }, "geometry": { "type": "Point", "coordinates": [ 2.37751227139611, 48.861789540728324 ] } },
{ "type": "Feature", "properties": { "PKID": 34, "housePrice": 559363.0, "postCode": null, "energyRating": null, "surveyTime": null, "streetName": "Crystal Street" }, "geometry": { "type": "Point", "coordinates": [ 2.379334508346401, 48.866182063108653 ] } },
{ "type": "Feature", "properties": { "PKID": 35, "housePrice": 2245560.0, "postCode": "JR43937", "energyRating": "E", "surveyTime": null, "streetName": "Washington Avenue" }, "geometry": null },
{ "type": "Feature", "properties": { "PKID": 36, "housePrice": 517747.0, "postCode": null, "energyRating": null, "surveyTime": "2022-08-30T06:17:48", "streetName": "Brook Drive" }, "geometry": null },
{ "type": "Feature", "properties": { "PKID": 37, "housePrice": 2299443.0, "postCode": null, "energyRating": null, "surveyTime": "2024-03-08T01:07:30", "streetName": "Second Street" }, "geometry": null },
{ "type": "Feature", "properties": { "PKID": 38, "housePrice": 1900702.0, "postCode": null, "energyRating": null, "surveyTime": null, "streetName": "Lincoln Avenue" }, "geometry": null },
{ "type": "Feature", "properties": { "PKID": 39, "housePrice": 2003849.0, "postCode": "VV23056", "energyRating": null, "surveyTime": null, "streetName": "Ash Street" }, "geometry": { "type": "Point", "coordinates": [ 2.375035023028202, 48.853226144714668 ] } },
{ "type": "Feature", "properties": { "PKID": 40, "housePrice": 2191035.0, "postCode": "Kz03375", "energyRating": null, "surveyTime": null, "streetName": "Hill Street" }, "geometry": null },
{ "type": "Feature", "properties": { "PKID": 41, "housePrice": 898629.0, "postCode": null, "energyRating": null, "surveyTime": "2024-11-22T01:28:12", "streetName": "Washington Avenue" }, "geometry": null },
{ "type": "Feature", "properties": { "PKID": 42, "housePrice": null, "postCode": "sJ34935", "energyRating": null, "surveyTime": null, "streetName": "King Street" }, "geometry": { "type": "Point", "coordinates": [ 2.363084390900748, 48.863661011854255 ] } },
{ "type": "Feature", "properties": { "PKID": 43, "housePrice": 2359961.0, "postCode": null, "energyRating": "A", "surveyTime": null, "streetName": "Washington Street" }, "geometry": { "type": "Point", "coordinates": [ 2.358856230321173, 48.861463123660997 ] } },
{ "type": "Feature", "properties": { "PKID": 44, "housePrice": 1119510.0, "postCode": null, "energyRating": "A", "surveyTime": null, "streetName": "Clover Street" }, "geometry": null },
{ "type": "Feature", "properties": { "PKID": 45, "housePrice": 1865936.0, "postCode": null, "energyRating": null, "surveyTime": null, "streetName": "Spring Street" }, "geometry": { "type": "Point", "coordinates": [ 2.359058406606725, 48.854777125523675 ] } },
{ "type": "Feature", "properties": { "PKID": 46, "housePrice": 2394773.0, "postCode": "pZ92920", "energyRating": null, "surveyTime": null, "streetName": "Washington Avenue" }, "geometry": null },
{ "type": "Feature", "properties": { "PKID": 47, "housePrice": null, "postCode": null, "energyRating": "A", "surveyTime": "2023-04-16T11:54:17", "streetName": "Lantern Lane" }, "geometry": null },
{ "type": "Feature", "properties": { "PKID": 48, "housePrice": 1006842.0, "postCode": null, "energyRating": "C", "surveyTime": null, "streetName": "Riverside Drive" }, "geometry": null },
{ "type": "Feature", "properties": { "PKID": 49, "housePrice": null, "postCode": "gj86720", "energyRating": "B", "surveyTime": null, "streetName": "Broadway" }, "geometry": null },
{ "type": "Feature", "properties": { "PKID": 50, "housePrice": null, "postCode": "wB40138", "energyRating": "D", "surveyTime": null, "streetName": "Diamond Street" }, "geometry": { "type": "Point", "coordinates": [ 2.357164115261064, 48.857213585363382 ] } },
{ "type": "Feature", "properties": { "PKID": 51, "housePrice": 775432.0, "postCode": null, "energyRating": null, "surveyTime": "2022-09-30T17:59:58", "streetName": "Franklin Road" }, "geometry": { "type": "Point", "coordinates": [ 2.388425990461795, 48.864735609929276 ] } },
{ "type": "Feature", "properties": { "PKID": 52, "housePrice": 1034439.0, "postCode": null, "energyRating": "B", "surveyTime": "2024-05-19T06:51:01", "streetName": "Park Street" }, "geometry": null },
{ "type": "Feature", "properties": { "PKID": 53, "housePrice": 599812.0, "postCode": null, "energyRating": "D", "surveyTime": "2024-11-24T14:20:05", "streetName": "Walnut Avenue" }, "geometry": { "type": "Point", "coordinates": [ 2.378622952811728, 48.860877337494401 ] } },
{ "type": "Feature", "properties": { "PKID": 54, "housePrice": 1152885.0, "postCode": null, "energyRating": null, "surveyTime": "2022-06-01T14:54:43", "streetName": "Park Place" }, "geometry": { "type": "Point", "coordinates": [ 2.363058140039678, 48.855374056601534 ] } },
{ "type": "Feature", "properties": { "PKID": 55, "housePrice": null, "postCode": null, "energyRating": null, "surveyTime": null, "streetName": "Maple Drive" }, "geometry": null },
{ "type": "Feature", "properties": { "PKID": 56, "housePrice": null, "postCode": "Or16588", "energyRating": null, "surveyTime": "2024-08-17T12:46:48", "streetName": "Third Street" }, "geometry": { "type": "Point", "coordinates": [ 2.386438121918705, 48.855280109612828 ] } },
{ "type": "Feature", "properties": { "PKID": 57, "housePrice": 2467372.0, "postCode": null, "energyRating": "D", "surveyTime": null, "streetName": "South Street" }, "geometry": null },
{ "type": "Feature", "properties": { "PKID": 58, "housePrice": null, "postCode": null, "energyRating": null, "surveyTime": null, "streetName": "Franklin Street" }, "geometry": { "type": "Point", "coordinates": [ 2.381711845841179, 48.859127128040321 ] } },
{ "type": "Feature", "properties": { "PKID": 59, "housePrice": null, "postCode": "UU97879", "energyRating": null, "surveyTime": "2022-03-25T01:48:44", "streetName": "College Avenue" }, "geometry": { "type": "Point", "coordinates": [ 2.350117037176769, 48.865881803012392 ] } },
{ "type": "Feature", "properties": { "PKID": 60, "housePrice": null, "postCode": "wl66425", "energyRating": "B", "surveyTime": null, "streetName": "Meadow Lane" }, "geometry": { "type": "Point", "coordinates": [ 2.362196878890563, 48.857782492195703 ] } },
{ "type": "Feature", "properties": { "PKID": 61, "housePrice": 435840.0, "postCode": "RC71723", "energyRating": null, "surveyTime": "2022-02-13T20:59:46", "streetName": "School Street" }, "geometry": { "type": "Point", "coordinates": [ 2.376491424498233, 48.859416581847533 ] } },
{ "type": "Feature", "properties": { "PKID": 62, "housePrice": null, "postCode": null, "energyRating": null, "surveyTime": null, "streetName": "Oak Street" }, "geometry": { "type": "Point", "coordinates": [ 2.381897145905389, 48.862849871610358 ] } },
{ "type": "Feature", "properties": { "PKID": 63, "housePrice": null, "postCode": null, "energyRating": null, "surveyTime": "2024-05-22T19:34:51", "streetName": "Oak Grove Road" }, "geometry": { "type": "Point", "coordinates": [ 2.378988795861055, 48.848017728708918 ] } },
{ "type": "Feature", "properties": { "PKID": 64, "housePrice": null, "postCode": "nv14687", "energyRating": null, "surveyTime": "2022-08-02T22:06:36", "streetName": "Madison Avenue" }, "geometry": null },
{ "type": "Feature", "properties": { "PKID": 65, "housePrice": 666659.0, "postCode": "Mo15912", "energyRating": null, "surveyTime": "2023-05-28T15:59:14", "streetName": "Meadowbrook Road" }, "geometry": { "type": "Point", "coordinates": [ 2.372846100955454, 48.873803813189596 ] } },
{ "type": "Feature", "properties": { "PKID": 66, "housePrice": 196146.0, "postCode": null, "energyRating": "D", "surveyTime": null, "streetName": "Birch Street" }, "geometry": { "type": "Point", "coordinates": [ 2.388390899252615, 48.859514518518722 ] } },
{ "type": "Feature", "properties": { "PKID": 67, "housePrice": null, "postCode": null, "energyRating": "C", "surveyTime": null, "streetName": "Village Street" }, "geometry": null },
{ "type": "Feature", "properties": { "PKID": 68, "housePrice": null, "postCode": "VC27817", "energyRating": null, "surveyTime": null, "streetName": "Hamilton Street" }, "geometry": null },
{ "type": "Feature", "properties": { "PKID": 69, "housePrice": null, "postCode": "ry58086", "energyRating": null, "surveyTime": "2023-02-23T06:19:45", "streetName": "Forest Drive" }, "geometry": { "type": "Point", "coordinates": [ 2.389485177570395, 48.864383207976843 ] } },
{ "type": "Feature", "properties": { "PKID": 70, "housePrice": null, "postCode": null, "energyRating": null, "surveyTime": "2024-04-05T05:17:22", "streetName": "North Street" }, "geometry": { "type": "Point", "coordinates": [ 2.366263904535879, 48.851832044553831 ] } },
{ "type": "Feature", "properties": { "PKID": 71, "housePrice": 1353263.0, "postCode": "Nq40681", "energyRating": null, "surveyTime": "2022-05-07T07:31:09", "streetName": "Hamilton Street" }, "geometry": { "type": "Point", "coordinates": [ 2.387241024788576, 48.860376141277598 ] } },
{ "type": "Feature", "properties": { "PKID": 72, "housePrice": null, "postCode": "pS49808", "energyRating": null, "surveyTime": null, "streetName": "Pine Street" }, "geometry": null },
{ "type": "Feature", "properties": { "PKID": 73, "housePrice": 1904644.0, "postCode": "pb89569", "energyRating": null, "surveyTime": null, "streetName": "Ash Street" }, "geometry": null },
{ "type": "Feature", "properties": { "PKID": 74, "housePrice": null, "postCode": null, "energyRating": null, "surveyTime": "2024-06-09T04:00:26", "streetName": "Meadowbrook Road" }, "geometry": { "type": "Point", "coordinates": [ 2.368492887314663, 48.852643700819669 ] } },
{ "type": "Feature", "properties": { "PKID": 75, "housePrice": null, "postCode": "My79927", "energyRating": "D", "surveyTime": null, "streetName": "Liberty Street" }, "geometry": null },
{ "type": "Feature", "properties": { "PKID": 76, "housePrice": 905614.0, "postCode": null, "energyRating": null, "surveyTime": "2023-10-05T16:25:38", "streetName": "Shady Lane" }, "geometry": null },
{ "type": "Feature", "properties": { "PKID": 77, "housePrice": null, "postCode": null, "energyRating": null, "surveyTime": null, "streetName": "Church Street" }, "geometry": { "type": "Point", "coordinates": [ 2.372135816993203, 48.849892374537887 ] } },
{ "type": "Feature", "properties": { "PKID": 78, "housePrice": null, "postCode": "Fc22249", "energyRating": "C", "surveyTime": null, "streetName": "Meadow Lane" }, "geometry": { "type": "Point", "coordinates": [ 2.375958502897811, 48.862447257776068 ] } },
{ "type": "Feature", "properties": { "PKID": 79, "housePrice": null, "postCode": "UP63767", "energyRating": "A", "surveyTime": "2025-03-27T10:53:11", "streetName": "Lantern Lane" }, "geometry": null },
{ "type": "Feature", "properties": { "PKID": 80, "housePrice": 1053482.0, "postCode": null, "energyRating": "C", "surveyTime": "2025-04-20T08:59:01", "streetName": "Lake Drive" }, "geometry": null },
{ "type": "Feature", "properties": { "PKID": 81, "housePrice": null, "postCode": "MT53689", "energyRating": "F", "surveyTime": "2023-05-19T10:41:24", "streetName": "Madison Avenue" }, "geometry": { "type": "Point", "coordinates": [ 2.37847914584325, 48.876422686621297 ] } },
{ "type": "Feature", "properties": { "PKID": 82, "housePrice": null, "postCode": "hv66436", "energyRating": null, "surveyTime": "2024-12-30T04:46:50", "streetName": "Evergreen Avenue" }, "geometry": null },
{ "type": "Feature", "properties": { "PKID": 83, "housePrice": null, "postCode": "RW42327", "energyRating": "A", "surveyTime": null, "streetName": "Maple Street" }, "geometry": null },
{ "type": "Feature", "properties": { "PKID": 84, "housePrice": null, "postCode": null, "energyRating": null, "surveyTime": null, "streetName": "Beach Road" }, "geometry": { "type": "Point", "coordinates": [ 2.361201913845179, 48.857820733353954 ] } },
{ "type": "Feature", "properties": { "PKID": 85, "housePrice": 1821827.0, "postCode": null, "energyRating": "D", "surveyTime": "2023-02-26T09:33:12", "streetName": "Meadow Lane" }, "geometry": { "type": "Point", "coordinates": [ 2.382932563578555, 48.860992727894796 ] } },
{ "type": "Feature", "properties": { "PKID": 86, "housePrice": null, "postCode": null, "energyRating": null, "surveyTime": null, "streetName": "Hillcrest Avenue" }, "geometry": null },
{ "type": "Feature", "properties": { "PKID": 87, "housePrice": null, "postCode": "wM74196", "energyRating": null, "surveyTime": null, "streetName": "Diamond Street" }, "geometry": { "type": "Point", "coordinates": [ 2.376196925001007, 48.874757006097575 ] } },
{ "type": "Feature", "properties": { "PKID": 88, "housePrice": null, "postCode": null, "energyRating": "C", "surveyTime": "2025-12-18T23:15:57", "streetName": "Pleasant Street" }, "geometry": { "type": "Point", "coordinates": [ 2.367549251529464, 48.869127109190117 ] } },
{ "type": "Feature", "properties": { "PKID": 89, "housePrice": 906887.0, "postCode": null, "energyRating": "F", "surveyTime": null, "streetName": "Pine Street" }, "geometry": { "type": "Point", "coordinates": [ 2.369799024426067, 48.857713174355993 ] } },
{ "type": "Feature", "properties": { "PKID": 90, "housePrice": null, "postCode": "Vv62186", "energyRating": null, "surveyTime": null, "streetName": "Madison Avenue" }, "geometry": { "type": "Point", "coordinates": [ 2.381011793360381, 48.86217394339581 ] } },
{ "type": "Feature", "properties": { "PKID": 91, "housePrice": 278356.0, "postCode": null, "energyRating": "A", "surveyTime": "2023-08-08T14:27:20", "streetName": "Birch Lane" }, "geometry": { "type": "Point", "coordinates": [ 2.389559938768629, 48.86499903398559 ] } },
{ "type": "Feature", "properties": { "PKID": 92, "housePrice": null, "postCode": "uZ62896", "energyRating": null, "surveyTime": null, "streetName": "Crystal Street" }, "geometry": null },
{ "type": "Feature", "properties": { "PKID": 93, "housePrice": null, "postCode": null, "energyRating": null, "surveyTime": "2023-03-15T03:22:20", "streetName": "Pine Avenue" }, "geometry": { "type": "Point", "coordinates": [ 2.371042022855085, 48.858018265734003 ] } },
{ "type": "Feature", "properties": { "PKID": 94, "housePrice": null, "postCode": null, "energyRating": null, "surveyTime": null, "streetName": "Park Place" }, "geometry": null },
{ "type": "Feature", "properties": { "PKID": 95, "housePrice": 2469101.0, "postCode": "aN38652", "energyRating": "C", "surveyTime": "2024-10-21T21:08:07", "streetName": "Park Street" }, "geometry": { "type": "Point", "coordinates": [ 2.380481298824131, 48.864687670353568 ] } },
{ "type": "Feature", "properties": { "PKID": 96, "housePrice": 372114.0, "postCode": "hy01901", "energyRating": "D", "surveyTime": null, "streetName": "Spring Street" }, "geometry": { "type": "Point", "coordinates": [ 2.374570483208198, 48.867431780633815 ] } },
{ "type": "Feature", "properties": { "PKID": 97, "housePrice": 1544506.0, "postCode": "dm71731", "energyRating": "B", "surveyTime": null, "streetName": "New Haven Road" }, "geometry": null },
{ "type": "Feature", "properties": { "PKID": 98, "housePrice": null, "postCode": null, "energyRating": "E", "surveyTime": null, "streetName": "Fifth Avenue" }, "geometry": null },
{ "type": "Feature", "properties": { "PKID": 99, "housePrice": 303215.0, "postCode": "LB71675", "energyRating": null, "surveyTime": "2025-03-09T14:05:09", "streetName": "Spring Street" }, "geometry": { "type": "Point", "coordinates": [ 2.389091478657257, 48.858374220979996 ] } },
{ "type": "Feature", "properties": { "PKID": 100, "housePrice": null, "postCode": "QF23695", "energyRating": "C", "surveyTime": null, "streetName": "Morningview Drive" }, "geometry": null },
{ "type": "Feature", "properties": { "PKID": 101, "housePrice": 1983986.0, "postCode": "Yb57582", "energyRating": null, "surveyTime": "2024-03-08T04:58:11", "streetName": "Franklin Road" }, "geometry": { "type": "Point", "coordinates": [ 2.382780980349395, 48.857316561600292 ] } },
{ "type": "Feature", "properties": { "PKID": 102, "housePrice": 1370123.0, "postCode": null, "energyRating": null, "surveyTime": "2022-03-12T10:02:48", "streetName": "Pleasant Street" }, "geometry": null },
{ "type": "Feature", "properties": { "PKID": 103, "housePrice": 1147722.0, "postCode": "po30399", "energyRating": "F", "surveyTime": null, "streetName": "Clover Street" }, "geometry": { "type": "Point", "coordinates": [ 2.376361282910648, 48.869148465441953 ] } },
{ "type": "Feature", "properties": { "PKID": 104, "housePrice": null, "postCode": "hU84724", "energyRating": null, "surveyTime": null, "streetName": "Meadow Lane" }, "geometry": null },
{ "type": "Feature", "properties": { "PKID": 105, "housePrice": null, "postCode": "fj92435", "energyRating": null, "surveyTime": null, "streetName": "Jefferson Street" }, "geometry": null },
{ "type": "Feature", "properties": { "PKID": 106, "housePrice": 432965.0, "postCode": null, "energyRating": null, "surveyTime": null, "streetName": "Franklin Street" }, "geometry": { "type": "Point", "coordinates": [ 2.393142419830352, 48.859088598552397 ] } },
{ "type": "Feature", "properties": { "PKID": 107, "housePrice": 679066.0, "postCode": null, "energyRating": null, "surveyTime": null, "streetName": "Clover Street" }, "geometry": null },
{ "type": "Feature", "properties": { "PKID": 108, "housePrice": null, "postCode": "me51085", "energyRating": "F", "surveyTime": null, "streetName": "Oak Lane" }, "geometry": { "type": "Point", "coordinates": [ 2.377211821981536, 48.860230300909635 ] } },
{ "type": "Feature", "properties": { "PKID": 109, "housePrice": null, "postCode": "MP96595", "energyRating": null, "surveyTime": null, "streetName": "Pleasant Street" }, "geometry": { "type": "Point", "coordinates": [ 2.370077107015918, 48.865463709851824 ] } },
{ "type": "Feature", "properties": { "PKID": 110, "housePrice": 1706456.0, "postCode": "LL76075", "energyRating": null, "surveyTime": "2022-10-21T14:14:20", "streetName": "Bluebell Street" }, "geometry": null },
{ "type": "Feature", "properties": { "PKID": 111, "housePrice": 340884.0, "postCode": "qU74210", "energyRating": null, "surveyTime": "2023-09-25T03:10:59", "streetName": "Rose Street" }, "geometry": { "type": "Point", "coordinates": [ 2.388368832930238, 48.868373656237154 ] } },
{ "type": "Feature", "properties": { "PKID": 112, "housePrice": null, "postCode": null, "energyRating": "D", "surveyTime": null, "streetName": "Golden Avenue" }, "geometry": null },
{ "type": "Feature", "properties": { "PKID": 113, "housePrice": 561945.0, "postCode": "bq06255", "energyRating": null, "surveyTime": null, "streetName": "Meadow Lane" }, "geometry": { "type": "Point", "coordinates": [ 2.38745642761009, 48.85731087515699 ] } },
{ "type": "Feature", "properties": { "PKID": 114, "housePrice": null, "postCode": "FZ42984", "energyRating": null, "surveyTime": "2022-06-16T13:03:17", "streetName": "Park Place" }, "geometry": { "type": "Point", "coordinates": [ 2.377323467246688, 48.868300810865335 ] } },
{ "type": "Feature", "properties": { "PKID": 115, "housePrice": 1829517.0, "postCode": null, "energyRating": "D", "surveyTime": "2024-05-07T00:38:17", "streetName": "Grove Street" }, "geometry": { "type": "Point", "coordinates": [ 2.36041202527175, 48.850501634555876 ] } },
{ "type": "Feature", "properties": { "PKID": 116, "housePrice": null, "postCode": null, "energyRating": "B", "surveyTime": null, "streetName": "Meadow Lane" }, "geometry": null },
{ "type": "Feature", "properties": { "PKID": 117, "housePrice": null, "postCode": null, "energyRating": "C", "surveyTime": "2023-07-05T15:50:11", "streetName": "Spring Street" }, "geometry": { "type": "Point", "coordinates": [ 2.40389984213753, 48.863096554667202 ] } },
{ "type": "Feature", "properties": { "PKID": 118, "housePrice": null, "postCode": "Mz64886", "energyRating": null, "surveyTime": null, "streetName": "Broadway" }, "geometry": { "type": "Point", "coordinates": [ 2.376166655602399, 48.859940275830887 ] } },
{ "type": "Feature", "properties": { "PKID": 119, "housePrice": null, "postCode": null, "energyRating": null, "surveyTime": null, "streetName": "King Street" }, "geometry": { "type": "Point", "coordinates": [ 2.403190896122492, 48.855478940145439 ] } },
{ "type": "Feature", "properties": { "PKID": 120, "housePrice": null, "postCode": "vl74324", "energyRating": "F", "surveyTime": null, "streetName": "Grove Street" }, "geometry": { "type": "Point", "coordinates": [ 2.367136504995269, 48.862157625755202 ] } },
{ "type": "Feature", "properties": { "PKID": 121, "housePrice": 427822.0, "postCode": null, "energyRating": null, "surveyTime": "2024-04-13T15:45:12", "streetName": "Forest Lane" }, "geometry": { "type": "Point", "coordinates": [ 2.377668781853694, 48.854926045455002 ] } },
{ "type": "Feature", "properties": { "PKID": 122, "housePrice": null, "postCode": null, "energyRating": null, "surveyTime": "2024-07-13T01:07:57", "streetName": "Cedar Lane" }, "geometry": { "type": "Point", "coordinates": [ 2.373006309622452, 48.877222249764927 ] } },
{ "type": "Feature", "properties": { "PKID": 123, "housePrice": null, "postCode": "cX47086", "energyRating": "A", "surveyTime": "2024-12-12T04:25:23", "streetName": "Forest Drive" }, "geometry": { "type": "Point", "coordinates": [ 2.376979372607188, 48.869971992816474 ] } },
{ "type": "Feature", "properties": { "PKID": 124, "housePrice": null, "postCode": null, "energyRating": null, "surveyTime": null, "streetName": "Meadowbrook Road" }, "geometry": { "type": "Point", "coordinates": [ 2.379606327236544, 48.871838387823466 ] } },
{ "type": "Feature", "properties": { "PKID": 125, "housePrice": 568267.0, "postCode": null, "energyRating": null, "surveyTime": null, "streetName": "Oak Grove Road" }, "geometry": null },
{ "type": "Feature", "properties": { "PKID": 126, "housePrice": 1617754.0, "postCode": null, "energyRating": "A", "surveyTime": "2022-08-01T11:53:56", "streetName": "Liberty Street" }, "geometry": { "type": "Point", "coordinates": [ 2.385114155916692, 48.856329364988014 ] } },
{ "type": "Feature", "properties": { "PKID": 127, "housePrice": 2149931.0, "postCode": "aU77892", "energyRating": "A", "surveyTime": null, "streetName": "College Avenue" }, "geometry": null },
{ "type": "Feature", "properties": { "PKID": 128, "housePrice": 1931593.0, "postCode": null, "energyRating": "D", "surveyTime": null, "streetName": "Oak Grove Road" }, "geometry": { "type": "Point", "coordinates": [ 2.403940920565275, 48.864612628879797 ] } },
{ "type": "Feature", "properties": { "PKID": 129, "housePrice": null, "postCode": "yL82778", "energyRating": null, "surveyTime": null, "streetName": "Willow Street" }, "geometry": null },
{ "type": "Feature", "properties": { "PKID": 130, "housePrice": null, "postCode": null, "energyRating": "D", "surveyTime": "2024-12-30T16:34:22", "streetName": "Elm Street" }, "geometry": { "type": "Point", "coordinates": [ 2.380711344925476, 48.850584579601751 ] } },
{ "type": "Feature", "properties": { "PKID": 131, "housePrice": 1265371.0, "postCode": null, "energyRating": "B", "surveyTime": null, "streetName": "Chestnut Street" }, "geometry": { "type": "Point", "coordinates": [ 2.372228616857232, 48.859343981362777 ] } },
{ "type": "Feature", "properties": { "PKID": 132, "housePrice": 1539750.0, "postCode": "jF50163", "energyRating": "F", "surveyTime": null, "streetName": "Riverbend Road" }, "geometry": null },
{ "type": "Feature", "properties": { "PKID": 133, "housePrice": 436635.0, "postCode": null, "energyRating": "E", "surveyTime": "2025-11-29T04:52:57", "streetName": "Valley Drive" }, "geometry": null },
{ "type": "Feature", "properties": { "PKID": 134, "housePrice": null, "postCode": "Hm65246", "energyRating": "B", "surveyTime": "2023-02-18T08:18:00", "streetName": "Park Place" }, "geometry": null },
{ "type": "Feature", "properties": { "PKID": 135, "housePrice": null, "postCode": "YE13553", "energyRating": "C", "surveyTime": "2024-11-27T17:27:29", "streetName": "Walnut Street" }, "geometry": { "type": "Point", "coordinates": [ 2.369499400894129, 48.866975905029868 ] } },
{ "type": "Feature", "properties": { "PKID": 136, "housePrice": 1379051.0, "postCode": "kL67572", "energyRating": "D", "surveyTime": "2025-05-04T16:23:21", "streetName": "River Street" }, "geometry": { "type": "Point", "coordinates": [ 2.373260891555259, 48.856139883108753 ] } },
{ "type": "Feature", "properties": { "PKID": 137, "housePrice": null, "postCode": "yd43795", "energyRating": null, "surveyTime": "2024-07-15T11:01:13", "streetName": "Oak Street" }, "geometry": null },
{ "type": "Feature", "properties": { "PKID": 138, "housePrice": 1690313.0, "postCode": null, "energyRating": null, "surveyTime": null, "streetName": "Garden Street" }, "geometry": { "type": "Point", "coordinates": [ 2.360199341021323, 48.85087459741866 ] } },
{ "type": "Feature", "properties": { "PKID": 139, "housePrice": null, "postCode": null, "energyRating": "C", "surveyTime": null, "streetName": "Autumn Street" }, "geometry": { "type": "Point", "coordinates": [ 2.395300892266821, 48.866144441356077 ] } },
{ "type": "Feature", "properties": { "PKID": 140, "housePrice": 2204965.0, "postCode": "TN99936", "energyRating": "E", "surveyTime": "2023-03-11T11:45:33", "streetName": "Washington Avenue" }, "geometry": { "type": "Point", "coordinates": [ 2.351371274476035, 48.847271926874029 ] } },
{ "type": "Feature", "properties": { "PKID": 141, "housePrice": null, "postCode": null, "energyRating": null, "surveyTime": "2025-01-30T13:45:05", "streetName": "Maple Lane" }, "geometry": null },
{ "type": "Feature", "properties": { "PKID": 142, "housePrice": null, "postCode": null, "energyRating": null, "surveyTime": null, "streetName": "Village Street" }, "geometry": null },
{ "type": "Feature", "properties": { "PKID": 143, "housePrice": 1809643.0, "postCode": null, "energyRating": null, "surveyTime": null, "streetName": "Shady Lane" }, "geometry": null },
{ "type": "Feature", "properties": { "PKID": 144, "housePrice": 2333227.0, "postCode": null, "energyRating": null, "surveyTime": null, "streetName": "Birch Lane" }, "geometry": { "type": "Point", "coordinates": [ 2.396617050432672, 48.846267973447844 ] } },
{ "type": "Feature", "properties": { "PKID": 145, "housePrice": 2428920.0, "postCode": null, "energyRating": null, "surveyTime": "2024-11-01T12:46:05", "streetName": "Cedar Street" }, "geometry": { "type": "Point", "coordinates": [ 2.377514617674786, 48.860178576489254 ] } },
{ "type": "Feature", "properties": { "PKID": 146, "housePrice": 1181034.0, "postCode": null, "energyRating": "F", "surveyTime": null, "streetName": "Copper Street" }, "geometry": { "type": "Point", "coordinates": [ 2.375326930071068, 48.880363134510432 ] } },
{ "type": "Feature", "properties": { "PKID": 147, "housePrice": null, "postCode": "lh91924", "energyRating": null, "surveyTime": null, "streetName": "Summit Avenue" }, "geometry": { "type": "Point", "coordinates": [ 2.378587039190106, 48.872209529159235 ] } },
{ "type": "Feature", "properties": { "PKID": 148, "housePrice": 282070.0, "postCode": "qh03637", "energyRating": "E", "surveyTime": null, "streetName": "Queen Street" }, "geometry": null },
{ "type": "Feature", "properties": { "PKID": 149, "housePrice": null, "postCode": "QO38574", "energyRating": null, "surveyTime": null, "streetName": "Queen Street" }, "geometry": null },
{ "type": "Feature", "properties": { "PKID": 150, "housePrice": null, "postCode": "np22463", "energyRating": null, "surveyTime": "2025-06-18T21:19:58", "streetName": "Madison Avenue" }, "geometry": { "type": "Point", "coordinates": [ 2.386432297032106, 48.845694401008885 ] } },
{ "type": "Feature", "properties": { "PKID": 151, "housePrice": 1276249.0, "postCode": null, "energyRating": null, "surveyTime": null, "streetName": "Birch Street" }, "geometry": { "type": "Point", "coordinates": [ 2.358222138858874, 48.843477777564395 ] } },
{ "type": "Feature", "properties": { "PKID": 152, "housePrice": null, "postCode": null, "energyRating": "F", "surveyTime": null, "streetName": "First Street" }, "geometry": { "type": "Point", "coordinates": [ 2.354170473685803, 48.874415477156681 ] } },
{ "type": "Feature", "properties": { "PKID": 153, "housePrice": 2419105.0, "postCode": "zg35285", "energyRating": "A", "surveyTime": null, "streetName": "Brook Drive" }, "geometry": { "type": "Point", "coordinates": [ 2.375704214897959, 48.877840015426706 ] } },
{ "type": "Feature", "properties": { "PKID": 154, "housePrice": 1540852.0, "postCode": null, "energyRating": "F", "surveyTime": "2025-04-14T00:40:08", "streetName": "Village Street" }, "geometry": null },
{ "type": "Feature", "properties": { "PKID": 155, "housePrice": null, "postCode": "aH02542", "energyRating": null, "surveyTime": null, "streetName": "Birch Lane" }, "geometry": null },
{ "type": "Feature", "properties": { "PKID": 156, "housePrice": null, "postCode": "Yy72180", "energyRating": "B", "surveyTime": "2025-11-23T01:58:12", "streetName": "Cedar Street" }, "geometry": { "type": "Point", "coordinates": [ 2.375421503758468, 48.860462459753251 ] } },
{ "type": "Feature", "properties": { "PKID": 157, "housePrice": 1062906.0, "postCode": null, "energyRating": null, "surveyTime": "2025-03-13T15:21:01", "streetName": "Pine Avenue" }, "geometry": null },
{ "type": "Feature", "properties": { "PKID": 158, "housePrice": null, "postCode": null, "energyRating": "C", "surveyTime": "2024-01-25T03:21:58", "streetName": "Park Street" }, "geometry": { "type": "Point", "coordinates": [ 2.393875621592644, 48.853978890544759 ] } },
{ "type": "Feature", "properties": { "PKID": 159, "housePrice": 985913.0, "postCode": null, "energyRating": null, "surveyTime": "2022-08-30T08:29:35", "streetName": "Oak Lane" }, "geometry": null },
{ "type": "Feature", "properties": { "PKID": 160, "housePrice": null, "postCode": null, "energyRating": null, "surveyTime": null, "streetName": "Forest Drive" }, "geometry": { "type": "Point", "coordinates": [ 2.399449879378282, 48.881935663043926 ] } },
{ "type": "Feature", "properties": { "PKID": 161, "housePrice": null, "postCode": "rC60331", "energyRating": null, "surveyTime": "2024-02-02T17:56:25", "streetName": "Sunset Drive" }, "geometry": { "type": "Point", "coordinates": [ 2.355856998005309, 48.859321694355863 ] } },
{ "type": "Feature", "properties": { "PKID": 162, "housePrice": 1999431.0, "postCode": null, "energyRating": null, "surveyTime": null, "streetName": "Summit Avenue" }, "geometry": { "type": "Point", "coordinates": [ 2.37373289177549, 48.835809941344436 ] } },
{ "type": "Feature", "properties": { "PKID": 163, "housePrice": null, "postCode": null, "energyRating": "F", "surveyTime": null, "streetName": "High Street" }, "geometry": null },
{ "type": "Feature", "properties": { "PKID": 164, "housePrice": null, "postCode": "Qh88921", "energyRating": null, "surveyTime": "2023-06-28T11:31:19", "streetName": "Chestnut Street" }, "geometry": { "type": "Point", "coordinates": [ 2.369255562756757, 48.828441048787866 ] } },
{ "type": "Feature", "properties": { "PKID": 165, "housePrice": null, "postCode": null, "energyRating": "D", "surveyTime": null, "streetName": "Village Street" }, "geometry": { "type": "Point", "coordinates": [ 2.348482843532, 48.859752446092813 ] } },
{ "type": "Feature", "properties": { "PKID": 166, "housePrice": 1710509.0, "postCode": null, "energyRating": null, "surveyTime": "2023-04-17T11:22:45", "streetName": "Liberty Street" }, "geometry": null },
{ "type": "Feature", "properties": { "PKID": 167, "housePrice": null, "postCode": "KJ31452", "energyRating": "A", "surveyTime": null, "streetName": "South Street" }, "geometry": null },
{ "type": "Feature", "properties": { "PKID": 168, "housePrice": null, "postCode": "tu49398", "energyRating": "B", "surveyTime": "2024-01-09T06:15:56", "streetName": "Elm Street" }, "geometry": null },
{ "type": "Feature", "properties": { "PKID": 169, "housePrice": 2467282.0, "postCode": "vN56216", "energyRating": "C", "surveyTime": null, "streetName": "First Street" }, "geometry": null },
{ "type": "Feature", "properties": { "PKID": 170, "housePrice": null, "postCode": "oa02561", "energyRating": "E", "surveyTime": null, "streetName": "Summit Avenue" }, "geometry": { "type": "Point", "coordinates": [ 2.397920427706223, 48.868653341068374 ] } },
{ "type": "Feature", "properties": { "PKID": 171, "housePrice": null, "postCode": null, "energyRating": "B", "surveyTime": null, "streetName": "Queen Street" }, "geometry": null },
{ "type": "Feature", "properties": { "PKID": 172, "housePrice": null, "postCode": "AS45714", "energyRating": null, "surveyTime": null, "streetName": "Forest Drive" }, "geometry": null },
{ "type": "Feature", "properties": { "PKID": 173, "housePrice": 856489.0, "postCode": "Zi94932", "energyRating": null, "surveyTime": "2025-03-28T03:03:32", "streetName": "Hillcrest Avenue" }, "geometry": null },
{ "type": "Feature", "properties": { "PKID": 174, "housePrice": null, "postCode": "Pu73135", "energyRating": "F", "surveyTime": null, "streetName": "Maple Lane" }, "geometry": null },
{ "type": "Feature", "properties": { "PKID": 175, "housePrice": 641545.0, "postCode": "Mm67320", "energyRating": null, "surveyTime": null, "streetName": "Magnolia Street" }, "geometry": { "type": "Point", "coordinates": [ 2.378241760575291, 48.864614200299826 ] } },
{ "type": "Feature", "properties": { "PKID": 176, "housePrice": null, "postCode": "QD07208", "energyRating": "A", "surveyTime": null, "streetName": "King Street" }, "geometry": null },
{ "type": "Feature", "properties": { "PKID": 177, "housePrice": null, "postCode": null, "energyRating": null, "surveyTime": "2023-02-16T20:17:30", "streetName": "Clover Street" }, "geometry": { "type": "Point", "coordinates": [ 2.369233736088128, 48.828677317036835 ] } },
{ "type": "Feature", "properties": { "PKID": 178, "housePrice": null, "postCode": "Ov33158", "energyRating": null, "surveyTime": "2024-07-17T09:27:20", "streetName": "South Street" }, "geometry": null },
{ "type": "Feature", "properties": { "PKID": 179, "housePrice": 458684.0, "postCode": "HQ09002", "energyRating": null, "surveyTime": "2025-01-26T04:34:41", "streetName": "Morningview Drive" }, "geometry": null },
{ "type": "Feature", "properties": { "PKID": 180, "housePrice": 2093278.0, "postCode": null, "energyRating": null, "surveyTime": null, "streetName": "Lincoln Avenue" }, "geometry": null },
{ "type": "Feature", "properties": { "PKID": 181, "housePrice": null, "postCode": "CA71993", "energyRating": "D", "surveyTime": "2024-08-08T17:49:33", "streetName": "Birch Lane" }, "geometry": null },
{ "type": "Feature", "properties": { "PKID": 182, "housePrice": 840727.0, "postCode": "Qd92956", "energyRating": null, "surveyTime": null, "streetName": "Village Street" }, "geometry": null },
{ "type": "Feature", "properties": { "PKID": 183, "housePrice": null, "postCode": "WX07304", "energyRating": "B", "surveyTime": "2024-09-01T05:23:32", "streetName": "Spring Street" }, "geometry": { "type": "Point", "coordinates": [ 2.338456021440511, 48.859992549632089 ] } },
{ "type": "Feature", "properties": { "PKID": 184, "housePrice": null, "postCode": "Tp07837", "energyRating": null, "surveyTime": "2023-08-19T11:15:51", "streetName": "Birch Street" }, "geometry": null },
{ "type": "Feature", "properties": { "PKID": 185, "housePrice": 1003271.0, "postCode": "TV18210", "energyRating": "D", "surveyTime": "2025-12-24T15:22:51", "streetName": "Clover Street" }, "geometry": { "type": "Point", "coordinates": [ 2.348286926355208, 48.852704935394286 ] } },
{ "type": "Feature", "properties": { "PKID": 186, "housePrice": 1519329.0, "postCode": null, "energyRating": "F", "surveyTime": "2025-10-06T20:55:20", "streetName": "Washington Street" }, "geometry": null },
{ "type": "Feature", "properties": { "PKID": 187, "housePrice": null, "postCode": "jo69905", "energyRating": "D", "surveyTime": "2022-06-11T03:14:01", "streetName": "Highland Road" }, "geometry": { "type": "Point", "coordinates": [ 2.358948571842539, 48.849802673123463 ] } },
{ "type": "Feature", "properties": { "PKID": 188, "housePrice": 2149638.0, "postCode": null, "energyRating": "C", "surveyTime": null, "streetName": "Forest Drive" }, "geometry": null },
{ "type": "Feature", "properties": { "PKID": 189, "housePrice": null, "postCode": "Vv34429", "energyRating": "A", "surveyTime": "2024-04-03T16:47:36", "streetName": "Oak Street" }, "geometry": { "type": "Point", "coordinates": [ 2.347239646719859, 48.849761045703133 ] } },
{ "type": "Feature", "properties": { "PKID": 190, "housePrice": 788069.0, "postCode": null, "energyRating": null, "surveyTime": null, "streetName": "Maple Lane" }, "geometry": null },
{ "type": "Feature", "properties": { "PKID": 191, "housePrice": 1250792.0, "postCode": null, "energyRating": "A", "surveyTime": "2024-12-21T23:34:13", "streetName": "High Street" }, "geometry": { "type": "Point", "coordinates": [ 2.354483587337609, 48.859417228495921 ] } },
{ "type": "Feature", "properties": { "PKID": 192, "housePrice": 310364.0, "postCode": "rN88448", "energyRating": null, "surveyTime": "2023-10-18T00:24:31", "streetName": "Park Street" }, "geometry": { "type": "Point", "coordinates": [ 2.358141592127987, 48.854219569491661 ] } },
{ "type": "Feature", "properties": { "PKID": 193, "housePrice": 1535317.0, "postCode": null, "energyRating": null, "surveyTime": null, "streetName": "Meadowbrook Road" }, "geometry": null },
{ "type": "Feature", "properties": { "PKID": 194, "housePrice": 865007.0, "postCode": "qd51187", "energyRating": null, "surveyTime": "2025-06-28T18:38:10", "streetName": "First Street" }, "geometry": { "type": "Point", "coordinates": [ 2.355970555002718, 48.849390618388519 ] } },
{ "type": "Feature", "properties": { "PKID": 195, "housePrice": null, "postCode": "Sb94653", "energyRating": null, "surveyTime": null, "streetName": "Forest Lane" }, "geometry": { "type": "Point", "coordinates": [ 2.330149621364591, 48.849615915405643 ] } },
{ "type": "Feature", "properties": { "PKID": 196, "housePrice": null, "postCode": null, "energyRating": "C", "surveyTime": "2023-10-09T08:18:05", "streetName": "Harbor Drive" }, "geometry": null },
{ "type": "Feature", "properties": { "PKID": 197, "housePrice": 786615.0, "postCode": "Oo18447", "energyRating": "D", "surveyTime": null, "streetName": "Maple Drive" }, "geometry": null },
{ "type": "Feature", "properties": { "PKID": 198, "housePrice": null, "postCode": "tU71567", "energyRating": null, "surveyTime": null, "streetName": "Chestnut Lane" }, "geometry": null },
{ "type": "Feature", "properties": { "PKID": 199, "housePrice": 545834.0, "postCode": "bN20323", "energyRating": null, "surveyTime": "2022-04-13T11:39:08", "streetName": "Maple Drive" }, "geometry": null },
{ "type": "Feature", "properties": { "PKID": 200, "housePrice": null, "postCode": "ic44014", "energyRating": null, "surveyTime": null, "streetName": "First Street" }, "geometry": null },
{ "type": "Feature", "properties": { "PKID": 201, "housePrice": null, "postCode": "Bi29230", "energyRating": null, "surveyTime": "2024-08-12T12:31:37", "streetName": "Second Street" }, "geometry": { "type": "Point", "coordinates": [ 2.346305471070108, 48.847227055921039 ] } },
{ "type": "Feature", "properties": { "PKID": 202, "housePrice": 950043.0, "postCode": null, "energyRating": "F", "surveyTime": null, "streetName": "Park Street" }, "geometry": null },
{ "type": "Feature", "properties": { "PKID": 203, "housePrice": null, "postCode": "gF24901", "energyRating": "B", "surveyTime": "2022-07-16T07:15:49", "streetName": "Cedar Street" }, "geometry": null },
{ "type": "Feature", "properties": { "PKID": 204, "housePrice": 1707740.0, "postCode": "dc11838", "energyRating": "B", "surveyTime": null, "streetName": "Golden Avenue" }, "geometry": null },
{ "type": "Feature", "properties": { "PKID": 205, "housePrice": 735912.0, "postCode": "wF99228", "energyRating": null, "surveyTime": "2022-06-20T05:01:39", "streetName": "River Street" }, "geometry": null },
{ "type": "Feature", "properties": { "PKID": 206, "housePrice": 974325.0, "postCode": "th53145", "energyRating": "F", "surveyTime": null, "streetName": "Park Place" }, "geometry": { "type": "Point", "coordinates": [ 2.36421434714148, 48.868573991768827 ] } },
{ "type": "Feature", "properties": { "PKID": 207, "housePrice": null, "postCode": "dg54300", "energyRating": "D", "surveyTime": "2024-02-28T18:17:07", "streetName": "Oak Street" }, "geometry": { "type": "Point", "coordinates": [ 2.37703273210836, 48.856951296672428 ] } },
{ "type": "Feature", "properties": { "PKID": 208, "housePrice": 2171749.0, "postCode": null, "energyRating": null, "surveyTime": "2022-09-08T10:34:10", "streetName": "Beach Road" }, "geometry": null },
{ "type": "Feature", "properties": { "PKID": 209, "housePrice": 2266570.0, "postCode": null, "energyRating": "E", "surveyTime": null, "streetName": "Birch Lane" }, "geometry": { "type": "Point", "coordinates": [ 2.360716459950634, 48.844436920220822 ] } },
{ "type": "Feature", "properties": { "PKID": 210, "housePrice": 1140660.0, "postCode": null, "energyRating": "A", "surveyTime": "2024-11-07T13:36:22", "streetName": "Magnolia Street" }, "geometry": null },
{ "type": "Feature", "properties": { "PKID": 211, "housePrice": 1415632.0, "postCode": null, "energyRating": null, "surveyTime": "2023-07-08T14:36:12", "streetName": "Main Street" }, "geometry": { "type": "Point", "coordinates": [ 2.316631540922163, 48.845543430876106 ] } },
{ "type": "Feature", "properties": { "PKID": 212, "housePrice": null, "postCode": null, "energyRating": "D", "surveyTime": null, "streetName": "Oak Lane" }, "geometry": null },
{ "type": "Feature", "properties": { "PKID": 213, "housePrice": null, "postCode": null, "energyRating": null, "surveyTime": null, "streetName": "Meadowbrook Road" }, "geometry": { "type": "Point", "coordinates": [ 2.381184556291126, 48.84961482791573 ] } },
{ "type": "Feature", "properties": { "PKID": 214, "housePrice": null, "postCode": "Bz71371", "energyRating": "F", "surveyTime": "2023-03-04T22:15:31", "streetName": "Morningview Drive" }, "geometry": { "type": "Point", "coordinates": [ 2.349724699032227, 48.874411561669739 ] } },
{ "type": "Feature", "properties": { "PKID": 215, "housePrice": 1794050.0, "postCode": "od83852", "energyRating": "F", "surveyTime": null, "streetName": "Beacon Street" }, "geometry": null },
{ "type": "Feature", "properties": { "PKID": 216, "housePrice": null, "postCode": "Zj83129", "energyRating": null, "surveyTime": "2022-05-26T03:32:23", "streetName": "Walnut Avenue" }, "geometry": null },
{ "type": "Feature", "properties": { "PKID": 217, "housePrice": 1755443.0, "postCode": null, "energyRating": "A", "surveyTime": "2025-02-26T03:20:16", "streetName": "Highland Road" }, "geometry": null },
{ "type": "Feature", "properties": { "PKID": 218, "housePrice": null, "postCode": null, "energyRating": "D", "surveyTime": "2025-05-02T02:50:04", "streetName": "Park Place" }, "geometry": null },
{ "type": "Feature", "properties": { "PKID": 219, "housePrice": 1614347.0, "postCode": "gd70376", "energyRating": "B", "surveyTime": null, "streetName": "Birch Lane" }, "geometry": { "type": "Point", "coordinates": [ 2.388040356462549, 48.849978693564765 ] } },
{ "type": "Feature", "properties": { "PKID": 220, "housePrice": 1960295.0, "postCode": "FM52360", "energyRating": "C", "surveyTime": null, "streetName": "Lake Drive" }, "geometry": null },
{ "type": "Feature", "properties": { "PKID": 221, "housePrice": 1405601.0, "postCode": "wp31129", "energyRating": "F", "surveyTime": null, "streetName": "Country Road" }, "geometry": { "type": "Point", "coordinates": [ 2.357945681502958, 48.863006225493294 ] } },
{ "type": "Feature", "properties": { "PKID": 222, "housePrice": 1824404.0, "postCode": null, "energyRating": "E", "surveyTime": "2025-02-28T13:28:18", "streetName": "Franklin Road" }, "geometry": { "type": "Point", "coordinates": [ 2.339174846338989, 48.865766606820891 ] } },
{ "type": "Feature", "properties": { "PKID": 223, "housePrice": null, "postCode": null, "energyRating": null, "surveyTime": "2022-06-09T09:50:32", "streetName": "Forest Drive" }, "geometry": null },
{ "type": "Feature", "properties": { "PKID": 224, "housePrice": 600819.0, "postCode": null, "energyRating": "D", "surveyTime": "2025-06-10T02:21:14", "streetName": "Pine Ridge Road" }, "geometry": null },
{ "type": "Feature", "properties": { "PKID": 225, "housePrice": 1599244.0, "postCode": "Pf11664", "energyRating": null, "surveyTime": null, "streetName": "Harbor Drive" }, "geometry": null },
{ "type": "Feature", "properties": { "PKID": 226, "housePrice": null, "postCode": null, "energyRating": null, "surveyTime": "2024-01-03T16:21:18", "streetName": "Cedar Lane" }, "geometry": null },
{ "type": "Feature", "properties": { "PKID": 227, "housePrice": 468453.0, "postCode": null, "energyRating": "A", "surveyTime": "2022-11-21T19:15:44", "streetName": "Spring Street" }, "geometry": { "type": "Point", "coordinates": [ 2.347633370587804, 48.844566377705704 ] } },
{ "type": "Feature", "properties": { "PKID": 228, "housePrice": null, "postCode": null, "energyRating": null, "surveyTime": "2022-11-20T16:23:59", "streetName": "Second Street" }, "geometry": null },
{ "type": "Feature", "properties": { "PKID": 229, "housePrice": 1147320.0, "postCode": "Kk04204", "energyRating": null, "surveyTime": "2025-05-15T03:47:23", "streetName": "North Street" }, "geometry": null },
{ "type": "Feature", "properties": { "PKID": 230, "housePrice": 1063000.0, "postCode": null, "energyRating": null, "surveyTime": null, "streetName": "Rose Avenue" }, "geometry": { "type": "Point", "coordinates": [ 2.384813483998804, 48.850616678856895 ] } },
{ "type": "Feature", "properties": { "PKID": 231, "housePrice": null, "postCode": null, "energyRating": "E", "surveyTime": null, "streetName": "Mountain Road" }, "geometry": null },
{ "type": "Feature", "properties": { "PKID": 232, "housePrice": null, "postCode": "iO18351", "energyRating": "E", "surveyTime": "2023-02-02T13:09:29", "streetName": "Willow Street" }, "geometry": null },
{ "type": "Feature", "properties": { "PKID": 233, "housePrice": 1739408.0, "postCode": null, "energyRating": "E", "surveyTime": null, "streetName": "Beach Road" }, "geometry": { "type": "Point", "coordinates": [ 2.388762763956415, 48.882725161018058 ] } },
{ "type": "Feature", "properties": { "PKID": 234, "housePrice": null, "postCode": "rn75215", "energyRating": "A", "surveyTime": null, "streetName": "School Street" }, "geometry": null },
{ "type": "Feature", "properties": { "PKID": 235, "housePrice": 1614800.0, "postCode": "Op60978", "energyRating": null, "surveyTime": "2025-05-27T02:55:48", "streetName": "Cedar Lane" }, "geometry": { "type": "Point", "coordinates": [ 2.381137568253723, 48.82793542268891 ] } },
{ "type": "Feature", "properties": { "PKID": 236, "housePrice": 2445393.0, "postCode": "nQ95104", "energyRating": null, "surveyTime": null, "streetName": "Tanglewood Drive" }, "geometry": null },
{ "type": "Feature", "properties": { "PKID": 237, "housePrice": 2158738.0, "postCode": null, "energyRating": "A", "surveyTime": "2024-08-10T22:05:27", "streetName": "Grove Street" }, "geometry": null },
{ "type": "Feature", "properties": { "PKID": 238, "housePrice": 2062570.0, "postCode": null, "energyRating": null, "surveyTime": "2022-03-15T17:17:11", "streetName": "School Street" }, "geometry": { "type": "Point", "coordinates": [ 2.354328658061257, 48.823795438183502 ] } },
{ "type": "Feature", "properties": { "PKID": 239, "housePrice": 1927815.0, "postCode": "In18879", "energyRating": "C", "surveyTime": "2022-03-02T18:27:54", "streetName": "Beacon Street" }, "geometry": { "type": "Point", "coordinates": [ 2.334834512340299, 48.891869319586277 ] } },
{ "type": "Feature", "properties": { "PKID": 240, "housePrice": 951815.0, "postCode": "ez77587", "energyRating": "B", "surveyTime": null, "streetName": "Birch Street" }, "geometry": null },
{ "type": "Feature", "properties": { "PKID": 241, "housePrice": null, "postCode": "cB01818", "energyRating": "B", "surveyTime": null, "streetName": "Prospect Avenue" }, "geometry": null },
{ "type": "Feature", "properties": { "PKID": 242, "housePrice": null, "postCode": "jL84991", "energyRating": null, "surveyTime": null, "streetName": "Summit Avenue" }, "geometry": null },
{ "type": "Feature", "properties": { "PKID": 243, "housePrice": null, "postCode": "XW82841", "energyRating": "D", "surveyTime": "2023-12-17T12:58:15", "streetName": "Madison Avenue" }, "geometry": { "type": "Point", "coordinates": [ 2.321570860971995, 48.834651273116556 ] } },
{ "type": "Feature", "properties": { "PKID": 244, "housePrice": 1130931.0, "postCode": "ez43631", "energyRating": "E", "surveyTime": null, "streetName": "Hamilton Street" }, "geometry": { "type": "Point", "coordinates": [ 2.319665231623935, 48.837827020700388 ] } },
{ "type": "Feature", "properties": { "PKID": 245, "housePrice": null, "postCode": null, "energyRating": "A", "surveyTime": "2025-03-05T07:48:00", "streetName": "Green Street" }, "geometry": { "type": "Point", "coordinates": [ 2.339637298342004, 48.857320011874521 ] } },
{ "type": "Feature", "properties": { "PKID": 246, "housePrice": 1278510.0, "postCode": "Kq10260", "energyRating": null, "surveyTime": "2022-06-10T19:06:22", "streetName": "Green Street" }, "geometry": null },
{ "type": "Feature", "properties": { "PKID": 247, "housePrice": 1977182.0, "postCode": "SC70290", "energyRating": "B", "surveyTime": "2025-01-16T22:36:02", "streetName": "Maple Street" }, "geometry": { "type": "Point", "coordinates": [ 2.391807229724283, 48.839701999809009 ] } },
{ "type": "Feature", "properties": { "PKID": 248, "housePrice": null, "postCode": "Cf47861", "energyRating": null, "surveyTime": null, "streetName": "Rose Street" }, "geometry": { "type": "Point", "coordinates": [ 2.373634770804149, 48.837598355712885 ] } },
{ "type": "Feature", "properties": { "PKID": 249, "housePrice": null, "postCode": "Ko97857", "energyRating": null, "surveyTime": null, "streetName": "Maple Lane" }, "geometry": { "type": "Point", "coordinates": [ 2.385402384112725, 48.827818089737285 ] } },
{ "type": "Feature", "properties": { "PKID": 250, "housePrice": null, "postCode": "nf22961", "energyRating": null, "surveyTime": null, "streetName": "Valleyview Drive" }, "geometry": null },
{ "type": "Feature", "properties": { "PKID": 251, "housePrice": null, "postCode": null, "energyRating": "B", "surveyTime": null, "streetName": "Riverside Drive" }, "geometry": { "type": "Point", "coordinates": [ 2.372563071021588, 48.822472387525586 ] } },
{ "type": "Feature", "properties": { "PKID": 252, "housePrice": null, "postCode": "pg39714", "energyRating": null, "surveyTime": null, "streetName": "Hill Street" }, "geometry": null },
{ "type": "Feature", "properties": { "PKID": 253, "housePrice": 459385.0, "postCode": "va60890", "energyRating": null, "surveyTime": "2023-02-14T15:00:45", "streetName": "Pine Avenue" }, "geometry": { "type": "Point", "coordinates": [ 2.338972401060898, 48.823289389275928 ] } },
{ "type": "Feature", "properties": { "PKID": 254, "housePrice": null, "postCode": "Lw66569", "energyRating": "F", "surveyTime": null, "streetName": "Colonial Road" }, "geometry": null },
{ "type": "Feature", "properties": { "PKID": 255, "housePrice": null, "postCode": null, "energyRating": null, "surveyTime": null, "streetName": "Diamond Street" }, "geometry": null },
{ "type": "Feature", "properties": { "PKID": 256, "housePrice": null, "postCode": "DY71036", "energyRating": null, "surveyTime": null, "streetName": "Broad Street" }, "geometry": { "type": "Point", "coordinates": [ 2.345264790506004, 48.855423605607704 ] } },
{ "type": "Feature", "properties": { "PKID": 257, "housePrice": null, "postCode": "Dh31239", "energyRating": "E", "surveyTime": "2023-04-02T22:51:32", "streetName": "Broadway" }, "geometry": null },
{ "type": "Feature", "properties": { "PKID": 258, "housePrice": null, "postCode": null, "energyRating": null, "surveyTime": null, "streetName": "Lake Drive" }, "geometry": null },
{ "type": "Feature", "properties": { "PKID": 259, "housePrice": 1440155.0, "postCode": "Zh74853", "energyRating": null, "surveyTime": null, "streetName": "West Street" }, "geometry": { "type": "Point", "coordinates": [ 2.371625271499088, 48.900430287375698 ] } },
{ "type": "Feature", "properties": { "PKID": 260, "housePrice": null, "postCode": null, "energyRating": null, "surveyTime": "2022-05-31T03:47:51", "streetName": "Autumn Street" }, "geometry": null },
{ "type": "Feature", "properties": { "PKID": 261, "housePrice": 1734278.0, "postCode": null, "energyRating": "E", "surveyTime": null, "streetName": "Park Street" }, "geometry": null },
{ "type": "Feature", "properties": { "PKID": 262, "housePrice": null, "postCode": "Hx01363", "energyRating": null, "surveyTime": null, "streetName": "Cedar Lane" }, "geometry": { "type": "Point", "coordinates": [ 2.383686910294475, 48.901583188157552 ] } },
{ "type": "Feature", "properties": { "PKID": 263, "housePrice": 2394837.0, "postCode": null, "energyRating": "B", "surveyTime": null, "streetName": "Riverbend Road" }, "geometry": null },
{ "type": "Feature", "properties": { "PKID": 264, "housePrice": 215168.0, "postCode": null, "energyRating": null, "surveyTime": "2022-12-20T05:41:19", "streetName": "Fourth Street" }, "geometry": { "type": "Point", "coordinates": [ 2.320517720638708, 48.870722712378075 ] } },
{ "type": "Feature", "properties": { "PKID": 265, "housePrice": 1842556.0, "postCode": null, "energyRating": null, "surveyTime": null, "streetName": "Washington Street" }, "geometry": null },
{ "type": "Feature", "properties": { "PKID": 266, "housePrice": null, "postCode": null, "energyRating": null, "surveyTime": null, "streetName": "Colonial Road" }, "geometry": { "type": "Point", "coordinates": [ 2.358986135082495, 48.844645147520403 ] } },
{ "type": "Feature", "properties": { "PKID": 267, "housePrice": null, "postCode": "xY14933", "energyRating": null, "surveyTime": "2023-05-26T04:40:38", "streetName": "River Road" }, "geometry": null },
{ "type": "Feature", "properties": { "PKID": 268, "housePrice": null, "postCode": null, "energyRating": "E", "surveyTime": null, "streetName": "Mountain Road" }, "geometry": null },
{ "type": "Feature", "properties": { "PKID": 269, "housePrice": null, "postCode": "Sm33446", "energyRating": null, "surveyTime": "2024-08-16T04:53:27", "streetName": "Copper Street" }, "geometry": null },
{ "type": "Feature", "properties": { "PKID": 270, "housePrice": 2257454.0, "postCode": "if06717", "energyRating": null, "surveyTime": null, "streetName": "Cedar Street" }, "geometry": null },
{ "type": "Feature", "properties": { "PKID": 271, "housePrice": 2023210.0, "postCode": "tY85427", "energyRating": null, "surveyTime": "2024-06-25T15:53:54", "streetName": "Tanglewood Drive" }, "geometry": null },
{ "type": "Feature", "properties": { "PKID": 272, "housePrice": null, "postCode": "AX09105", "energyRating": "F", "surveyTime": null, "streetName": "Highland Road" }, "geometry": { "type": "Point", "coordinates": [ 2.312714707353864, 48.86379157013755 ] } },
{ "type": "Feature", "properties": { "PKID": 273, "housePrice": null, "postCode": null, "energyRating": null, "surveyTime": "2025-08-04T02:53:59", "streetName": "Garden Street" }, "geometry": { "type": "Point", "coordinates": [ 2.317919438053864, 48.854651944625267 ] } },
{ "type": "Feature", "properties": { "PKID": 274, "housePrice": 265754.0, "postCode": "an96044", "energyRating": null, "surveyTime": "2024-07-11T08:10:32", "streetName": "Silver Street" }, "geometry": null },
{ "type": "Feature", "properties": { "PKID": 275, "housePrice": 1273888.0, "postCode": null, "energyRating": null, "surveyTime": null, "streetName": "High Street" }, "geometry": null },
{ "type": "Feature", "properties": { "PKID": 276, "housePrice": null, "postCode": null, "energyRating": "F", "surveyTime": "2023-09-09T16:27:28", "streetName": "Tanglewood Drive" }, "geometry": null },
{ "type": "Feature", "properties": { "PKID": 277, "housePrice": null, "postCode": null, "energyRating": null, "surveyTime": "2024-09-08T12:02:05", "streetName": "Colonial Road" }, "geometry": null },
{ "type": "Feature", "properties": { "PKID": 278, "housePrice": 1855155.0, "postCode": "rg57472", "energyRating": null, "surveyTime": null, "streetName": "Tanglewood Drive" }, "geometry": null },
{ "type": "Feature", "properties": { "PKID": 279, "housePrice": 2035268.0, "postCode": null, "energyRating": "B", "surveyTime": "2023-08-19T20:13:25", "streetName": "Pine Ridge Road" }, "geometry": { "type": "Point", "coordinates": [ 2.306559713239444, 48.853131600574777 ] } },
{ "type": "Feature", "properties": { "PKID": 280, "housePrice": 2063385.0, "postCode": "SX14960", "energyRating": "F", "surveyTime": "2023-11-18T22:05:59", "streetName": "Beach Road" }, "geometry": { "type": "Point", "coordinates": [ 2.337070012095196, 48.845737153545059 ] } },
{ "type": "Feature", "properties": { "PKID": 281, "housePrice": null, "postCode": "yQ65108", "energyRating": "D", "surveyTime": null, "streetName": "North Street" }, "geometry": { "type": "Point", "coordinates": [ 2.302152994498548, 48.856321050636332 ] } },
{ "type": "Feature", "properties": { "PKID": 282, "housePrice": 477463.0, "postCode": null, "energyRating": "D", "surveyTime": "2023-12-17T02:59:49", "streetName": "Liberty Street" }, "geometry": { "type": "Point", "coordinates": [ 2.324217570778941, 48.842184077101031 ] } },
{ "type": "Feature", "properties": { "PKID": 283, "housePrice": 831312.0, "postCode": null, "energyRating": null, "surveyTime": "2025-12-14T11:00:26", "streetName": "Brook Drive" }, "geometry": { "type": "Point", "coordinates": [ 2.338075347822743, 48.846893235724792 ] } },
{ "type": "Feature", "properties": { "PKID": 284, "housePrice": null, "postCode": null, "energyRating": "A", "surveyTime": "2025-12-13T00:15:47", "streetName": "Jefferson Street" }, "geometry": null },
{ "type": "Feature", "properties": { "PKID": 285, "housePrice": 367533.0, "postCode": null, "energyRating": "C", "surveyTime": "2022-10-28T11:45:09", "streetName": "First Street" }, "geometry": null },
{ "type": "Feature", "properties": { "PKID": 286, "housePrice": null, "postCode": null, "energyRating": "E", "surveyTime": "2023-04-16T18:09:00", "streetName": "Harbor Drive" }, "geometry": { "type": "Point", "coordinates": [ 2.311356522743078, 48.856443537687582 ] } },
{ "type": "Feature", "properties": { "PKID": 287, "housePrice": null, "postCode": null, "energyRating": null, "surveyTime": null, "streetName": "School Street" }, "geometry": { "type": "Point", "coordinates": [ 2.316825002398462, 48.844131008971281 ] } },
{ "type": "Feature", "properties": { "PKID": 288, "housePrice": 1396982.0, "postCode": null, "energyRating": "C", "surveyTime": "2024-07-12T01:30:38", "streetName": "Sunset Boulevard" }, "geometry": null },
{ "type": "Feature", "properties": { "PKID": 289, "housePrice": null, "postCode": null, "energyRating": "F", "surveyTime": "2022-07-08T00:58:52", "streetName": "Magnolia Street" }, "geometry": null },
{ "type": "Feature", "properties": { "PKID": 290, "housePrice": null, "postCode": "We41457", "energyRating": "E", "surveyTime": null, "streetName": "Crystal Street" }, "geometry": null },
{ "type": "Feature", "properties": { "PKID": 291, "housePrice": 1655783.0, "postCode": null, "energyRating": "D", "surveyTime": null, "streetName": "Crystal Street" }, "geometry": null },
{ "type": "Feature", "properties": { "PKID": 292, "housePrice": 2129869.0, "postCode": "HG89516", "energyRating": "F", "surveyTime": "2022-06-17T10:49:55", "streetName": "Birch Lane" }, "geometry": { "type": "Point", "coordinates": [ 2.337074128847488, 48.82833354177685 ] } },
{ "type": "Feature", "properties": { "PKID": 293, "housePrice": null, "postCode": null, "energyRating": null, "surveyTime": null, "streetName": "High Street" }, "geometry": null },
{ "type": "Feature", "properties": { "PKID": 294, "housePrice": 1703817.0, "postCode": "xO71382", "energyRating": null, "surveyTime": "2023-07-02T23:45:35", "streetName": "Lincoln Avenue" }, "geometry": null },
{ "type": "Feature", "properties": { "PKID": 295, "housePrice": 2020195.0, "postCode": "fB50303", "energyRating": null, "surveyTime": null, "streetName": "Oak Street" }, "geometry": { "type": "Point", "coordinates": [ 2.309181748835751, 48.875294674373244 ] } },
{ "type": "Feature", "properties": { "PKID": 296, "housePrice": 372394.0, "postCode": null, "energyRating": null, "surveyTime": "2023-06-04T09:26:57", "streetName": "Walnut Street" }, "geometry": null },
{ "type": "Feature", "properties": { "PKID": 297, "housePrice": null, "postCode": "dQ10041", "energyRating": "B", "surveyTime": "2024-12-19T12:19:24", "streetName": "College Avenue" }, "geometry": { "type": "Point", "coordinates": [ 2.302708683850978, 48.855066514170559 ] } },
{ "type": "Feature", "properties": { "PKID": 298, "housePrice": 1363383.0, "postCode": "cW87154", "energyRating": null, "surveyTime": "2022-05-04T23:42:07", "streetName": "Chestnut Street" }, "geometry": null },
{ "type": "Feature", "properties": { "PKID": 299, "housePrice": null, "postCode": "RB44899", "energyRating": null, "surveyTime": null, "streetName": "Riverside Drive" }, "geometry": { "type": "Point", "coordinates": [ 2.314375318406478, 48.849263130385317 ] } },
{ "type": "Feature", "properties": { "PKID": 300, "housePrice": null, "postCode": null, "energyRating": "F", "surveyTime": null, "streetName": "Golden Avenue" }, "geometry": null },
{ "type": "Feature", "properties": { "PKID": 301, "housePrice": null, "postCode": null, "energyRating": null, "surveyTime": "2025-01-13T12:23:06", "streetName": "Forest Lane" }, "geometry": null },
{ "type": "Feature", "properties": { "PKID": 302, "housePrice": 1888676.0, "postCode": null, "energyRating": "A", "surveyTime": "2023-12-27T17:28:28", "streetName": "High Street" }, "geometry": { "type": "Point", "coordinates": [ 2.336357521115891, 48.871032937706353 ] } },
{ "type": "Feature", "properties": { "PKID": 303, "housePrice": null, "postCode": null, "energyRating": null, "surveyTime": "2023-05-25T00:12:29", "streetName": "Redbud Road" }, "geometry": null },
{ "type": "Feature", "properties": { "PKID": 304, "housePrice": 830095.0, "postCode": "jr49782", "energyRating": "B", "surveyTime": "2024-02-03T05:53:31", "streetName": "Garden Street" }, "geometry": { "type": "Point", "coordinates": [ 2.325028570813595, 48.842045994051496 ] } },
{ "type": "Feature", "properties": { "PKID": 305, "housePrice": null, "postCode": "Cj77574", "energyRating": null, "surveyTime": null, "streetName": "Clover Street" }, "geometry": { "type": "Point", "coordinates": [ 2.358533861583234, 48.83535977611708 ] } },
{ "type": "Feature", "properties": { "PKID": 306, "housePrice": 1194250.0, "postCode": "Of62127", "energyRating": "C", "surveyTime": "2023-05-28T09:18:13", "streetName": "Forest Drive" }, "geometry": null },
{ "type": "Feature", "properties": { "PKID": 307, "housePrice": null, "postCode": "UD56715", "energyRating": "A", "surveyTime": null, "streetName": "Chestnut Lane" }, "geometry": null },
{ "type": "Feature", "properties": { "PKID": 308, "housePrice": null, "postCode": "uA37141", "energyRating": "B", "surveyTime": null, "streetName": "Pine Avenue" }, "geometry": null },
{ "type": "Feature", "properties": { "PKID": 309, "housePrice": 2357614.0, "postCode": null, "energyRating": "E", "surveyTime": "2025-03-25T05:05:31", "streetName": "Forest Lane" }, "geometry": null },
{ "type": "Feature", "properties": { "PKID": 310, "housePrice": 706802.0, "postCode": "jM84110", "energyRating": "B", "surveyTime": "2025-10-05T10:52:49", "streetName": "Tanglewood Drive" }, "geometry": { "type": "Point", "coordinates": [ 2.325888729504657, 48.875285359229537 ] } },
{ "type": "Feature", "properties": { "PKID": 311, "housePrice": null, "postCode": "hR73124", "energyRating": "B", "surveyTime": "2022-07-03T09:45:43", "streetName": "King Street" }, "geometry": { "type": "Point", "coordinates": [ 2.324563025988335, 48.880091604313115 ] } },
{ "type": "Feature", "properties": { "PKID": 312, "housePrice": null, "postCode": null, "energyRating": "B", "surveyTime": null, "streetName": "Maple Lane" }, "geometry": { "type": "Point", "coordinates": [ 2.299896078307475, 48.84465595053927 ] } },
{ "type": "Feature", "properties": { "PKID": 313, "housePrice": null, "postCode": null, "energyRating": null, "surveyTime": null, "streetName": "Park Street" }, "geometry": null },
{ "type": "Feature", "properties": { "PKID": 314, "housePrice": null, "postCode": "ld55349", "energyRating": "D", "surveyTime": null, "streetName": "Third Street" }, "geometry": null },
{ "type": "Feature", "properties": { "PKID": 315, "housePrice": null, "postCode": null, "energyRating": "B", "surveyTime": null, "streetName": "Walnut Avenue" }, "geometry": { "type": "Point", "coordinates": [ 2.334347323503742, 48.880000439408562 ] } },
{ "type": "Feature", "properties": { "PKID": 316, "housePrice": null, "postCode": null, "energyRating": "A", "surveyTime": null, "streetName": "Chestnut Lane" }, "geometry": null },
{ "type": "Feature", "properties": { "PKID": 317, "housePrice": 1262612.0, "postCode": "mO96562", "energyRating": null, "surveyTime": "2024-03-02T10:13:58", "streetName": "Hill Street" }, "geometry": null },
{ "type": "Feature", "properties": { "PKID": 318, "housePrice": null, "postCode": "KW60136", "energyRating": "C", "surveyTime": null, "streetName": "Meadow Lane" }, "geometry": null },
{ "type": "Feature", "properties": { "PKID": 319, "housePrice": 1955677.0, "postCode": null, "energyRating": null, "surveyTime": "2025-08-29T05:22:03", "streetName": "Village Street" }, "geometry": null },
{ "type": "Feature", "properties": { "PKID": 320, "housePrice": null, "postCode": null, "energyRating": null, "surveyTime": "2022-01-24T04:03:16", "streetName": "Pine Ridge Road" }, "geometry": null },
{ "type": "Feature", "properties": { "PKID": 321, "housePrice": 1282410.0, "postCode": "sY90862", "energyRating": null, "surveyTime": null, "streetName": "Park Avenue" }, "geometry": null },
{ "type": "Feature", "properties": { "PKID": 322, "housePrice": 2492602.0, "postCode": null, "energyRating": null, "surveyTime": null, "streetName": "Maple Lane" }, "geometry": { "type": "Point", "coordinates": [ 2.370550459111329, 48.831956169257623 ] } },
{ "type": "Feature", "properties": { "PKID": 323, "housePrice": 185075.0, "postCode": "rw63158", "energyRating": "D", "surveyTime": null, "streetName": "Country Road" }, "geometry": { "type": "Point", "coordinates": [ 2.344607596133107, 48.870396740342876 ] } },
{ "type": "Feature", "properties": { "PKID": 324, "housePrice": null, "postCode": "qw98060", "energyRating": null, "surveyTime": "2025-06-18T04:41:09", "streetName": "Village Street" }, "geometry": { "type": "Point", "coordinates": [ 2.36098811880677, 48.819812729844003 ] } },
{ "type": "Feature", "properties": { "PKID": 325, "housePrice": 419949.0, "postCode": "Pi57105", "energyRating": "A", "surveyTime": "2024-11-21T12:03:42", "streetName": "Valley Drive" }, "geometry": { "type": "Point", "coordinates": [ 2.300111876866743, 48.838986901287363 ] } },
{ "type": "Feature", "properties": { "PKID": 326, "housePrice": null, "postCode": "Wu45674", "energyRating": null, "surveyTime": null, "streetName": "New Haven Road" }, "geometry": { "type": "Point", "coordinates": [ 2.291260816497881, 48.887384393656788 ] } },
{ "type": "Feature", "properties": { "PKID": 327, "housePrice": null, "postCode": null, "energyRating": "B", "surveyTime": "2025-01-31T17:48:13", "streetName": "Maple Drive" }, "geometry": { "type": "Point", "coordinates": [ 2.378651080617745, 48.873352602744397 ] } },
{ "type": "Feature", "properties": { "PKID": 328, "housePrice": null, "postCode": null, "energyRating": "E", "surveyTime": "2024-01-14T08:48:36", "streetName": "Meadow Lane" }, "geometry": null },
{ "type": "Feature", "properties": { "PKID": 329, "housePrice": null, "postCode": "ma50619", "energyRating": "F", "surveyTime": "2024-04-02T13:13:35", "streetName": "Meadowbrook Road" }, "geometry": null },
{ "type": "Feature", "properties": { "PKID": 330, "housePrice": 509627.0, "postCode": null, "energyRating": null, "surveyTime": "2022-06-28T21:23:14", "streetName": "Chestnut Street" }, "geometry": null },
{ "type": "Feature", "properties": { "PKID": 331, "housePrice": 996735.0, "postCode": "jT96480", "energyRating": "D", "surveyTime": null, "streetName": "Hamilton Street" }, "geometry": null },
{ "type": "Feature", "properties": { "PKID": 332, "housePrice": null, "postCode": null, "energyRating": "B", "surveyTime": "2025-02-14T18:42:51", "streetName": "Pine Ridge Road" }, "geometry": null },
{ "type": "Feature", "properties": { "PKID": 333, "housePrice": 413502.0, "postCode": null, "energyRating": null, "surveyTime": "2024-01-19T22:48:56", "streetName": "Hamilton Street" }, "geometry": null },
{ "type": "Feature", "properties": { "PKID": 334, "housePrice": null, "postCode": null, "energyRating": null, "surveyTime": "2025-08-26T03:11:19", "streetName": "Pine Avenue" }, "geometry": null },
{ "type": "Feature", "properties": { "PKID": 335, "housePrice": 391273.0, "postCode": null, "energyRating": null, "surveyTime": "2023-08-16T04:04:55", "streetName": "Valleyview Drive" }, "geometry": { "type": "Point", "coordinates": [ 2.363161484759192, 48.83647660416004 ] } },
{ "type": "Feature", "properties": { "PKID": 336, "housePrice": 2356525.0, "postCode": null, "energyRating": null, "surveyTime": null, "streetName": "Jefferson Street" }, "geometry": null },
{ "type": "Feature", "properties": { "PKID": 337, "housePrice": 965201.0, "postCode": "WC47830", "energyRating": "C", "surveyTime": "2024-12-28T00:43:40", "streetName": "Prospect Avenue" }, "geometry": { "type": "Point", "coordinates": [ 2.304263140452701, 48.830006155662439 ] } },
{ "type": "Feature", "properties": { "PKID": 338, "housePrice": 611348.0, "postCode": "ob79011", "energyRating": "E", "surveyTime": null, "streetName": "Silver Street" }, "geometry": { "type": "Point", "coordinates": [ 2.327743436556294, 48.863716259800398 ] } },
{ "type": "Feature", "properties": { "PKID": 339, "housePrice": 1908287.0, "postCode": "PB97566", "energyRating": null, "surveyTime": null, "streetName": "Washington Street" }, "geometry": null },
{ "type": "Feature", "properties": { "PKID": 340, "housePrice": null, "postCode": null, "energyRating": "E", "surveyTime": null, "streetName": "Meadow Lane" }, "geometry": { "type": "Point", "coordinates": [ 2.295495767819204, 48.828921948344231 ] } },
{ "type": "Feature", "properties": { "PKID": 341, "housePrice": null, "postCode": null, "energyRating": "F", "surveyTime": null, "streetName": "Brook Drive" }, "geometry": { "type": "Point", "coordinates": [ 2.333275418959745, 48.852984502288308 ] } },
{ "type": "Feature", "properties": { "PKID": 342, "housePrice": 303287.0, "postCode": null, "energyRating": "A", "surveyTime": null, "streetName": "Ivy Street" }, "geometry": { "type": "Point", "coordinates": [ 2.266252705821093, 48.863311390686718 ] } },
{ "type": "Feature", "properties": { "PKID": 343, "housePrice": null, "postCode": null, "energyRating": "C", "surveyTime": null, "streetName": "Park Avenue" }, "geometry": { "type": "Point", "coordinates": [ 2.338827787570029, 48.850497712362589 ] } },
{ "type": "Feature", "properties": { "PKID": 344, "housePrice": 2078787.0, "postCode": null, "energyRating": null, "surveyTime": null, "streetName": "Sunset Drive" }, "geometry": null },
{ "type": "Feature", "properties": { "PKID": 345, "housePrice": null, "postCode": "jT39764", "energyRating": "F", "surveyTime": "2024-10-22T08:23:11", "streetName": "Park Avenue" }, "geometry": { "type": "Point", "coordinates": [ 2.330975153705956, 48.891659984386948 ] } },
{ "type": "Feature", "properties": { "PKID": 346, "housePrice": null, "postCode": null, "energyRating": "D", "surveyTime": null, "streetName": "Valleyview Drive" }, "geometry": null },
{ "type": "Feature", "properties": { "PKID": 347, "housePrice": 1125903.0, "postCode": "Kv06261", "energyRating": "A", "surveyTime": "2022-06-26T12:24:21", "streetName": "West Street" }, "geometry": null },
{ "type": "Feature", "properties": { "PKID": 348, "housePrice": null, "postCode": "cj88265", "energyRating": "D", "surveyTime": null, "streetName": "Hillcrest Avenue" }, "geometry": null },
{ "type": "Feature", "properties": { "PKID": 349, "housePrice": null, "postCode": null, "energyRating": "D", "surveyTime": null, "streetName": "Pine Avenue" }, "geometry": { "type": "Point", "coordinates": [ 2.359444690899357, 48.843185381434914 ] } },
{ "type": "Feature", "properties": { "PKID": 350, "housePrice": 524794.0, "postCode": null, "energyRating": null, "surveyTime": null, "streetName": "Main Street" }, "geometry": { "type": "Point", "coordinates": [ 2.399645100066083, 48.869433397338604 ] } },
{ "type": "Feature", "properties": { "PKID": 351, "housePrice": null, "postCode": null, "energyRating": "C", "surveyTime": "2024-08-18T04:57:04", "streetName": "Maple Street" }, "geometry": { "type": "Point", "coordinates": [ 2.358076992960729, 48.829392644626694 ] } },
{ "type": "Feature", "properties": { "PKID": 352, "housePrice": 1313782.0, "postCode": null, "energyRating": "A", "surveyTime": null, "streetName": "Redbud Road" }, "geometry": { "type": "Point", "coordinates": [ 2.271303097051179, 48.830597173880612 ] } },
{ "type": "Feature", "properties": { "PKID": 353, "housePrice": null, "postCode": "yH71670", "energyRating": "E", "surveyTime": null, "streetName": "Clover Street" }, "geometry": null },
{ "type": "Feature", "properties": { "PKID": 354, "housePrice": null, "postCode": "eB62049", "energyRating": null, "surveyTime": null, "streetName": "Country Road" }, "geometry": null },
{ "type": "Feature", "properties": { "PKID": 355, "housePrice": 160312.0, "postCode": null, "energyRating": "E", "surveyTime": "2022-10-09T18:41:08", "streetName": "Ivy Street" }, "geometry": null },
{ "type": "Feature", "properties": { "PKID": 356, "housePrice": 1307024.0, "postCode": "sp43002", "energyRating": "D", "surveyTime": "2023-05-24T09:47:50", "streetName": "Green Street" }, "geometry": null },
{ "type": "Feature", "properties": { "PKID": 357, "housePrice": null, "postCode": null, "energyRating": null, "surveyTime": "2025-04-26T06:12:46", "streetName": "School Street" }, "geometry": { "type": "Point", "coordinates": [ 2.380204618360257, 48.866381691480079 ] } },
{ "type": "Feature", "properties": { "PKID": 358, "housePrice": 335628.0, "postCode": "og04716", "energyRating": "B", "surveyTime": "2024-06-08T00:48:16", "streetName": "Highland Road" }, "geometry": null },
{ "type": "Feature", "properties": { "PKID": 359, "housePrice": 178670.0, "postCode": null, "energyRating": null, "surveyTime": null, "streetName": "Ivy Street" }, "geometry": null },
{ "type": "Feature", "properties": { "PKID": 360, "housePrice": null, "postCode": null, "energyRating": null, "surveyTime": null, "streetName": "Park Place" }, "geometry": { "type": "Point", "coordinates": [ 2.369290756234856, 48.850535140011431 ] } },
{ "type": "Feature", "properties": { "PKID": 361, "housePrice": null, "postCode": "Rv14265", "energyRating": null, "surveyTime": "2025-06-21T06:59:24", "streetName": "Bluebell Street" }, "geometry": null },
{ "type": "Feature", "properties": { "PKID": 362, "housePrice": null, "postCode": null, "energyRating": null, "surveyTime": "2024-06-08T01:04:27", "streetName": "Jefferson Street" }, "geometry": null },
{ "type": "Feature", "properties": { "PKID": 363, "housePrice": null, "postCode": "Ne91897", "energyRating": "E", "surveyTime": null, "streetName": "King Street" }, "geometry": null },
{ "type": "Feature", "properties": { "PKID": 364, "housePrice": null, "postCode": null, "energyRating": "D", "surveyTime": "2024-03-13T11:29:23", "streetName": "Valley Drive" }, "geometry": null },
{ "type": "Feature", "properties": { "PKID": 365, "housePrice": 966256.0, "postCode": null, "energyRating": "E", "surveyTime": "2023-08-22T03:06:49", "streetName": "Oak Lane" }, "geometry": { "type": "Point", "coordinates": [ 2.364795316731959, 48.8550780211919 ] } },
{ "type": "Feature", "properties": { "PKID": 366, "housePrice": null, "postCode": null, "energyRating": "A", "surveyTime": "2024-07-27T01:13:27", "streetName": "Jefferson Street" }, "geometry": { "type": "Point", "coordinates": [ 2.369526725562825, 48.849272576556473 ] } },
{ "type": "Feature", "properties": { "PKID": 367, "housePrice": null, "postCode": null, "energyRating": null, "surveyTime": "2022-04-19T17:00:42", "streetName": "New Haven Road" }, "geometry": null },
{ "type": "Feature", "properties": { "PKID": 368, "housePrice": null, "postCode": null, "energyRating": "D", "surveyTime": "2022-06-14T13:35:33", "streetName": "Riverside Drive" }, "geometry": { "type": "Point", "coordinates": [ 2.37002654953597, 48.845816596584825 ] } },
{ "type": "Feature", "properties": { "PKID": 369, "housePrice": 1158991.0, "postCode": "vN24567", "energyRating": "D", "surveyTime": "2025-02-22T15:23:06", "streetName": "Magnolia Street" }, "geometry": null },
{ "type": "Feature", "properties": { "PKID": 370, "housePrice": 884177.0, "postCode": "WS37901", "energyRating": null, "surveyTime": null, "streetName": "West Street" }, "geometry": { "type": "Point", "coordinates": [ 2.374677783873624, 48.866836979553511 ] } },
{ "type": "Feature", "properties": { "PKID": 371, "housePrice": 1049016.0, "postCode": null, "energyRating": null, "surveyTime": "2023-12-18T08:20:35", "streetName": "Clover Street" }, "geometry": { "type": "Point", "coordinates": [ 2.351809606191092, 48.851358576200305 ] } },
{ "type": "Feature", "properties": { "PKID": 372, "housePrice": null, "postCode": null, "energyRating": "B", "surveyTime": "2023-01-21T09:55:48", "streetName": "Green Street" }, "geometry": null },
{ "type": "Feature", "properties": { "PKID": 373, "housePrice": null, "postCode": "YU21188", "energyRating": "D", "surveyTime": null, "streetName": "Pleasant Street" }, "geometry": null },
{ "type": "Feature", "properties": { "PKID": 374, "housePrice": 1168590.0, "postCode": null, "energyRating": "F", "surveyTime": null, "streetName": "Birch Lane" }, "geometry": { "type": "Point", "coordinates": [ 2.367058039257457, 48.868494974143566 ] } },
{ "type": "Feature", "properties": { "PKID": 375, "housePrice": null, "postCode": null, "energyRating": null, "surveyTime": "2024-02-09T06:14:43", "streetName": "Country Road" }, "geometry": null },
{ "type": "Feature", "properties": { "PKID": 376, "housePrice": 959813.0, "postCode": "sX82838", "energyRating": "D", "surveyTime": "2024-03-29T22:43:16", "streetName": "Rose Street" }, "geometry": null },
{ "type": "Feature", "properties": { "PKID": 377, "housePrice": null, "postCode": "Gq51175", "energyRating": "E", "surveyTime": null, "streetName": "Broadway" }, "geometry": null },
{ "type": "Feature", "properties": { "PKID": 378, "housePrice": null, "postCode": null, "energyRating": "C", "surveyTime": null, "streetName": "Washington Avenue" }, "geometry": null },
{ "type": "Feature", "properties": { "PKID": 379, "housePrice": 1717894.0, "postCode": null, "energyRating": null, "surveyTime": null, "streetName": "Forest Lane" }, "geometry": { "type": "Point", "coordinates": [ 2.362566907445768, 48.83199113799315 ] } },
{ "type": "Feature", "properties": { "PKID": 380, "housePrice": null, "postCode": null, "energyRating": "E", "surveyTime": null, "streetName": "Beach Road" }, "geometry": { "type": "Point", "coordinates": [ 2.392120398064, 48.859379864748945 ] } },
{ "type": "Feature", "properties": { "PKID": 381, "housePrice": null, "postCode": "Nh93738", "energyRating": "D", "surveyTime": null, "streetName": "Grove Street" }, "geometry": null },
{ "type": "Feature", "properties": { "PKID": 382, "housePrice": 1651775.0, "postCode": "kj69496", "energyRating": null, "surveyTime": "2025-08-25T02:12:51", "streetName": "Birch Lane" }, "geometry": { "type": "Point", "coordinates": [ 2.36990544582336, 48.877818828587259 ] } },
{ "type": "Feature", "properties": { "PKID": 383, "housePrice": null, "postCode": "Mq39543", "energyRating": "A", "surveyTime": null, "streetName": "Madison Avenue" }, "geometry": null },
{ "type": "Feature", "properties": { "PKID": 384, "housePrice": 2232248.0, "postCode": null, "energyRating": "D", "surveyTime": "2022-01-02T21:23:51", "streetName": "Pine Ridge Road" }, "geometry": null },
{ "type": "Feature", "properties": { "PKID": 385, "housePrice": 381890.0, "postCode": "ym99783", "energyRating": null, "surveyTime": "2025-10-02T00:21:49", "streetName": "Pine Avenue" }, "geometry": null },
{ "type": "Feature", "properties": { "PKID": 386, "housePrice": null, "postCode": null, "energyRating": null, "surveyTime": null, "streetName": "East Street" }, "geometry": null },
{ "type": "Feature", "properties": { "PKID": 387, "housePrice": null, "postCode": null, "energyRating": "A", "surveyTime": "2024-08-09T08:56:24", "streetName": "Walnut Avenue" }, "geometry": null },
{ "type": "Feature", "properties": { "PKID": 388, "housePrice": null, "postCode": null, "energyRating": "F", "surveyTime": null, "streetName": "Maple Street" }, "geometry": null },
{ "type": "Feature", "properties": { "PKID": 389, "housePrice": 2456259.0, "postCode": null, "energyRating": "A", "surveyTime": "2022-11-09T16:53:11", "streetName": "Maple Lane" }, "geometry": { "type": "Point", "coordinates": [ 2.390060982860041, 48.882458150414422 ] } },
{ "type": "Feature", "properties": { "PKID": 390, "housePrice": 930926.0, "postCode": "xV22663", "energyRating": null, "surveyTime": "2022-04-20T01:23:34", "streetName": "Golden Avenue" }, "geometry": { "type": "Point", "coordinates": [ 2.321190976244153, 48.848989099859253 ] } },
{ "type": "Feature", "properties": { "PKID": 391, "housePrice": 1631472.0, "postCode": null, "energyRating": null, "surveyTime": "2025-01-22T08:56:28", "streetName": "Broadway" }, "geometry": { "type": "Point", "coordinates": [ 2.401468617019098, 48.839610334513324 ] } },
{ "type": "Feature", "properties": { "PKID": 392, "housePrice": null, "postCode": "jA99091", "energyRating": "A", "surveyTime": null, "streetName": "Oak Grove Road" }, "geometry": { "type": "Point", "coordinates": [ 2.373095931413224, 48.850725679191584 ] } },
{ "type": "Feature", "properties": { "PKID": 393, "housePrice": 578337.0, "postCode": null, "energyRating": "A", "surveyTime": "2024-01-17T21:20:54", "streetName": "Broad Street" }, "geometry": null },
{ "type": "Feature", "properties": { "PKID": 394, "housePrice": 523230.0, "postCode": "aq09542", "energyRating": null, "surveyTime": "2024-03-13T06:19:02", "streetName": "Walnut Street" }, "geometry": { "type": "Point", "coordinates": [ 2.358712749441863, 48.837885265346756 ] } },
{ "type": "Feature", "properties": { "PKID": 395, "housePrice": 1149180.0, "postCode": null, "energyRating": "A", "surveyTime": null, "streetName": "Queen Street" }, "geometry": { "type": "Point", "coordinates": [ 2.340873671591059, 48.843777146506788 ] } },
{ "type": "Feature", "properties": { "PKID": 396, "housePrice": null, "postCode": "Za68874", "energyRating": null, "surveyTime": null, "streetName": "Hillcrest Avenue" }, "geometry": { "type": "Point", "coordinates": [ 2.32338943603195, 48.864778691004432 ] } },
{ "type": "Feature", "properties": { "PKID": 397, "housePrice": null, "postCode": "Vn61750", "energyRating": null, "surveyTime": null, "streetName": "Franklin Road" }, "geometry": { "type": "Point", "coordinates": [ 2.376239357617237, 48.848373213243711 ] } },
{ "type": "Feature", "properties": { "PKID": 398, "housePrice": 1089142.0, "postCode": null, "energyRating": null, "surveyTime": null, "streetName": "Chestnut Lane" }, "geometry": { "type": "Point", "coordinates": [ 2.375166714894203, 48.831202411275186 ] } },
{ "type": "Feature", "properties": { "PKID": 399, "housePrice": null, "postCode": null, "energyRating": "F", "surveyTime": null, "streetName": "Birch Lane" }, "geometry": { "type": "Point", "coordinates": [ 2.376346846043593, 48.873268800428143 ] } },
{ "type": "Feature", "properties": { "PKID": 400, "housePrice": 1603870.0, "postCode": null, "energyRating": null, "surveyTime": "2023-07-15T17:10:52", "streetName": "Ivy Street" }, "geometry": null },
{ "type": "Feature", "properties": { "PKID": 401, "housePrice": 2430746.0, "postCode": null, "energyRating": "B", "surveyTime": "2023-12-27T21:09:26", "streetName": "Meadow Lane" }, "geometry": null },
{ "type": "Feature", "properties": { "PKID": 402, "housePrice": 237949.0, "postCode": "UF83168", "energyRating": "F", "surveyTime": "2025-10-13T04:14:04", "streetName": "Maple Drive" }, "geometry": null },
{ "type": "Feature", "properties": { "PKID": 403, "housePrice": null, "postCode": "qv80004", "energyRating": null, "surveyTime": null, "streetName": "Tanglewood Drive" }, "geometry": null },
{ "type": "Feature", "properties": { "PKID": 404, "housePrice": 1442632.0, "postCode": null, "energyRating": "C", "surveyTime": "2022-01-16T05:18:33", "streetName": "Tanglewood Drive" }, "geometry": { "type": "Point", "coordinates": [ 2.389040837102157, 48.844566990697849 ] } },
{ "type": "Feature", "properties": { "PKID": 405, "housePrice": null, "postCode": null, "energyRating": "A", "surveyTime": "2022-11-09T20:51:20", "streetName": "Riverside Drive" }, "geometry": { "type": "Point", "coordinates": [ 2.401820280611118, 48.862055991236701 ] } },
{ "type": "Feature", "properties": { "PKID": 406, "housePrice": null, "postCode": "Dw07029", "energyRating": null, "surveyTime": null, "streetName": "Park Street" }, "geometry": { "type": "Point", "coordinates": [ 2.345113623197512, 48.836106266505624 ] } },
{ "type": "Feature", "properties": { "PKID": 407, "housePrice": 1334233.0, "postCode": "FZ60074", "energyRating": null, "surveyTime": null, "streetName": "Prospect Avenue" }, "geometry": { "type": "Point", "coordinates": [ 2.341214849449913, 48.8725336055466 ] } },
{ "type": "Feature", "properties": { "PKID": 408, "housePrice": null, "postCode": null, "energyRating": null, "surveyTime": "2024-09-01T04:48:54", "streetName": "Colonial Road" }, "geometry": null },
{ "type": "Feature", "properties": { "PKID": 409, "housePrice": 316160.0, "postCode": null, "energyRating": "F", "surveyTime": "2023-02-09T17:30:28", "streetName": "Country Road" }, "geometry": null },
{ "type": "Feature", "properties": { "PKID": 410, "housePrice": null, "postCode": null, "energyRating": null, "surveyTime": "2025-05-21T10:59:36", "streetName": "Cedar Lane" }, "geometry": null },
{ "type": "Feature", "properties": { "PKID": 411, "housePrice": 779567.0, "postCode": null, "energyRating": "B", "surveyTime": "2022-01-18T06:17:08", "streetName": "Rose Avenue" }, "geometry": null },
{ "type": "Feature", "properties": { "PKID": 412, "housePrice": 1948243.0, "postCode": null, "energyRating": null, "surveyTime": "2022-03-25T14:16:13", "streetName": "Oak Grove Road" }, "geometry": null },
{ "type": "Feature", "properties": { "PKID": 413, "housePrice": 521661.0, "postCode": "kv30936", "energyRating": null, "surveyTime": null, "streetName": "Tanglewood Drive" }, "geometry": { "type": "Point", "coordinates": [ 2.347721390248691, 48.838970014672796 ] } },
{ "type": "Feature", "properties": { "PKID": 414, "housePrice": null, "postCode": null, "energyRating": null, "surveyTime": "2025-05-05T15:33:12", "streetName": "Chestnut Street" }, "geometry": { "type": "Point", "coordinates": [ 2.379344902951657, 48.899516755508948 ] } },
{ "type": "Feature", "properties": { "PKID": 415, "housePrice": 1540460.0, "postCode": "zG41302", "energyRating": null, "surveyTime": null, "streetName": "River Road" }, "geometry": null },
{ "type": "Feature", "properties": { "PKID": 416, "housePrice": null, "postCode": null, "energyRating": null, "surveyTime": "2022-01-15T22:52:47", "streetName": "Church Street" }, "geometry": null },
{ "type": "Feature", "properties": { "PKID": 417, "housePrice": null, "postCode": null, "energyRating": "D", "surveyTime": "2022-06-25T19:13:47", "streetName": "Cedar Lane" }, "geometry": null },
{ "type": "Feature", "properties": { "PKID": 418, "housePrice": 2201486.0, "postCode": "Hm49894", "energyRating": "F", "surveyTime": "2022-09-08T16:20:18", "streetName": "Garden Street" }, "geometry": { "type": "Point", "coordinates": [ 2.338776904138196, 48.84419476441532 ] } },
{ "type": "Feature", "properties": { "PKID": 419, "housePrice": 1542833.0, "postCode": null, "energyRating": null, "surveyTime": "2025-02-26T03:09:39", "streetName": "Pine Avenue" }, "geometry": null },
{ "type": "Feature", "properties": { "PKID": 420, "housePrice": 2212316.0, "postCode": null, "energyRating": "F", "surveyTime": "2025-06-09T08:40:50", "streetName": "Franklin Street" }, "geometry": { "type": "Point", "coordinates": [ 2.320680892574546, 48.883371227033059 ] } },
{ "type": "Feature", "properties": { "PKID": 421, "housePrice": 354686.0, "postCode": "Tr56832", "energyRating": "A", "surveyTime": "2023-06-22T04:15:40", "streetName": "King Street" }, "geometry": null },
{ "type": "Feature", "properties": { "PKID": 422, "housePrice": null, "postCode": null, "energyRating": null, "surveyTime": "2025-11-17T07:34:15", "streetName": "Maple Drive" }, "geometry": { "type": "Point", "coordinates": [ 2.370993626371664, 48.829208836427512 ] } },
{ "type": "Feature", "properties": { "PKID": 423, "housePrice": 1585666.0, "postCode": "bm95948", "energyRating": null, "surveyTime": "2022-04-17T19:21:05", "streetName": "Harbor Drive" }, "geometry": { "type": "Point", "coordinates": [ 2.300134617062269, 48.849485559079312 ] } },
{ "type": "Feature", "properties": { "PKID": 424, "housePrice": 408865.0, "postCode": null, "energyRating": null, "surveyTime": "2025-12-15T08:39:23", "streetName": "Second Street" }, "geometry": { "type": "Point", "coordinates": [ 2.352480914131373, 48.887779268847567 ] } },
{ "type": "Feature", "properties": { "PKID": 425, "housePrice": null, "postCode": null, "energyRating": "F", "surveyTime": null, "streetName": "Oak Grove Road" }, "geometry": null },
{ "type": "Feature", "properties": { "PKID": 426, "housePrice": null, "postCode": "oy74710", "energyRating": "B", "surveyTime": "2024-01-12T16:32:54", "streetName": "Highland Road" }, "geometry": { "type": "Point", "coordinates": [ 2.388874638829944, 48.855025751555999 ] } },
{ "type": "Feature", "properties": { "PKID": 427, "housePrice": null, "postCode": "iC27377", "energyRating": null, "surveyTime": null, "streetName": "Maple Lane" }, "geometry": { "type": "Point", "coordinates": [ 2.390549139132219, 48.85826410630483 ] } },
{ "type": "Feature", "properties": { "PKID": 428, "housePrice": 2089444.0, "postCode": "lb28528", "energyRating": null, "surveyTime": "2025-11-07T15:19:42", "streetName": "Franklin Road" }, "geometry": { "type": "Point", "coordinates": [ 2.402049188451586, 48.83376037921424 ] } },
{ "type": "Feature", "properties": { "PKID": 429, "housePrice": 999570.0, "postCode": "hg38840", "energyRating": "C", "surveyTime": null, "streetName": "Spring Street" }, "geometry": { "type": "Point", "coordinates": [ 2.425030857887763, 48.8375128911768 ] } },
{ "type": "Feature", "properties": { "PKID": 430, "housePrice": 749419.0, "postCode": null, "energyRating": "B", "surveyTime": null, "streetName": "Chestnut Lane" }, "geometry": null },
{ "type": "Feature", "properties": { "PKID": 431, "housePrice": 701836.0, "postCode": "VW52398", "energyRating": null, "surveyTime": "2022-04-07T06:45:50", "streetName": "Oak Lane" }, "geometry": null },
{ "type": "Feature", "properties": { "PKID": 432, "housePrice": 799362.0, "postCode": "LQ16643", "energyRating": null, "surveyTime": "2024-06-19T06:42:58", "streetName": "Brook Drive" }, "geometry": null },
{ "type": "Feature", "properties": { "PKID": 433, "housePrice": null, "postCode": null, "energyRating": null, "surveyTime": null, "streetName": "Rose Street" }, "geometry": { "type": "Point", "coordinates": [ 2.332754012790533, 48.857758574120979 ] } },