{
"type": "FeatureCollection",
"name": "geofabrik_dcc_bounding",
"crs": { "type": "name", "properties": { "name": "urn:ogc:def:crs:OGC:1.3:CRS84" } },
"features": [
{ "type": "Feature", "properties": { "osm_id": "659799", "code": 2907, "fclass": "camera_surveillance", "name": null }, "geometry": { "type": "Point", "coordinates": [ -6.2507642, 53.3411734 ] } },
{ "type": "Feature", "properties": { "osm_id": "27465846", "code": 2253, "fclass": "swimming_pool", "name": "Aquazone at National Aquatic Centre" }, "geometry": { "type": "Point", "coordinates": [ -6.37011, 53.3970539 ] } },
{ "type": "Feature", "properties": { "osm_id": "27474191", "code": 2007, "fclass": "library", "name": "Blanchardstown Library" }, "geometry": { "type": "Point", "coordinates": [ -6.3911037, 53.3908986 ] } },
{ "type": "Feature", "properties": { "osm_id": "27474239", "code": 2201, "fclass": "theatre", "name": "Draíocht" }, "geometry": { "type": "Point", "coordinates": [ -6.3918252, 53.3909593 ] } },
{ "type": "Feature", "properties": { "osm_id": "59998053", "code": 2031, "fclass": "recycling_glass", "name": null }, "geometry": { "type": "Point", "coordinates": [ -6.3259694, 53.296868 ] } },
{ "type": "Feature", "properties": { "osm_id": "70828975", "code": 2005, "fclass": "post_office", "name": "Blanchardstown Post Office" }, "geometry": { "type": "Point", "coordinates": [ -6.3782581, 53.3866265 ] } },
{ "type": "Feature", "properties": { "osm_id": "71824199", "code": 2952, "fclass": "water_tower", "name": "UCD Water Tower" }, "geometry": { "type": "Point", "coordinates": [ -6.2320393, 53.3083189 ] } },
{ "type": "Feature", "properties": { "osm_id": "78514742", "code": 2004, "fclass": "post_box", "name": null }, "geometry": { "type": "Point", "coordinates": [ -6.3199016, 53.2992281 ] } },
{ "type": "Feature", "properties": { "osm_id": "78514747", "code": 2602, "fclass": "atm", "name": null }, "geometry": { "type": "Point", "coordinates": [ -6.3214939, 53.2992018 ] } },
{ "type": "Feature", "properties": { "osm_id": "82650565", "code": 2907, "fclass": "camera_surveillance", "name": null }, "geometry": { "type": "Point", "coordinates": [ -6.1349343, 53.2946827 ] } },
{ "type": "Feature", "properties": { "osm_id": "107986833", "code": 2004, "fclass": "post_box", "name": null }, "geometry": { "type": "Point", "coordinates": [ -6.3101184, 53.3128414 ] } },
{ "type": "Feature", "properties": { "osm_id": "108004939", "code": 2031, "fclass": "recycling_glass", "name": null }, "geometry": { "type": "Point", "coordinates": [ -6.3229483, 53.3109183 ] } },
{ "type": "Feature", "properties": { "osm_id": "130156802", "code": 2304, "fclass": "pub", "name": "Le Monde Café Bar" }, "geometry": { "type": "Point", "coordinates": [ -6.2527615, 53.3501917 ] } },
{ "type": "Feature", "properties": { "osm_id": "130262124", "code": 2004, "fclass": "post_box", "name": null }, "geometry": { "type": "Point", "coordinates": [ -6.1895326, 53.2960961 ] } },
{ "type": "Feature", "properties": { "osm_id": "130826074", "code": 2592, "fclass": "vending_parking", "name": null }, "geometry": { "type": "Point", "coordinates": [ -6.2458818, 53.3375355 ] } },
{ "type": "Feature", "properties": { "osm_id": "130826086", "code": 2592, "fclass": "vending_parking", "name": null }, "geometry": { "type": "Point", "coordinates": [ -6.2435939, 53.3382373 ] } },
{ "type": "Feature", "properties": { "osm_id": "130826104", "code": 2592, "fclass": "vending_parking", "name": null }, "geometry": { "type": "Point", "coordinates": [ -6.2490596, 53.3386594 ] } },
{ "type": "Feature", "properties": { "osm_id": "130826114", "code": 2592, "fclass": "vending_parking", "name": null }, "geometry": { "type": "Point", "coordinates": [ -6.2497442, 53.3388936 ] } },
{ "type": "Feature", "properties": { "osm_id": "130855222", "code": 2592, "fclass": "vending_parking", "name": null }, "geometry": { "type": "Point", "coordinates": [ -6.2505164, 53.3391776 ] } },
{ "type": "Feature", "properties": { "osm_id": "130855226", "code": 2592, "fclass": "vending_parking", "name": null }, "geometry": { "type": "Point", "coordinates": [ -6.2508769, 53.3393057 ] } },
{ "type": "Feature", "properties": { "osm_id": "130855241", "code": 2004, "fclass": "post_box", "name": null }, "geometry": { "type": "Point", "coordinates": [ -6.2518201, 53.3396041 ] } },
{ "type": "Feature", "properties": { "osm_id": "130855254", "code": 2592, "fclass": "vending_parking", "name": null }, "geometry": { "type": "Point", "coordinates": [ -6.2514165, 53.3405963 ] } },
{ "type": "Feature", "properties": { "osm_id": "130855282", "code": 2004, "fclass": "post_box", "name": null }, "geometry": { "type": "Point", "coordinates": [ -6.2471562, 53.3399655 ] } },
{ "type": "Feature", "properties": { "osm_id": "130927492", "code": 2592, "fclass": "vending_parking", "name": null }, "geometry": { "type": "Point", "coordinates": [ -6.2470646, 53.338703 ] } },
{ "type": "Feature", "properties": { "osm_id": "130927503", "code": 2592, "fclass": "vending_parking", "name": null }, "geometry": { "type": "Point", "coordinates": [ -6.2490185, 53.3386916 ] } },
{ "type": "Feature", "properties": { "osm_id": "130927704", "code": 2592, "fclass": "vending_parking", "name": null }, "geometry": { "type": "Point", "coordinates": [ -6.2515952, 53.3400343 ] } },
{ "type": "Feature", "properties": { "osm_id": "130927722", "code": 2592, "fclass": "vending_parking", "name": null }, "geometry": { "type": "Point", "coordinates": [ -6.2512082, 53.340428 ] } },
{ "type": "Feature", "properties": { "osm_id": "130927732", "code": 2592, "fclass": "vending_parking", "name": null }, "geometry": { "type": "Point", "coordinates": [ -6.2494178, 53.34057 ] } },
{ "type": "Feature", "properties": { "osm_id": "130927736", "code": 2592, "fclass": "vending_parking", "name": null }, "geometry": { "type": "Point", "coordinates": [ -6.2487194, 53.3403396 ] } },
{ "type": "Feature", "properties": { "osm_id": "130927741", "code": 2592, "fclass": "vending_parking", "name": null }, "geometry": { "type": "Point", "coordinates": [ -6.2480075, 53.3400849 ] } },
{ "type": "Feature", "properties": { "osm_id": "130942937", "code": 2520, "fclass": "jeweller", "name": "Diamant" }, "geometry": { "type": "Point", "coordinates": [ -6.2438927, 53.3365213 ] } },
{ "type": "Feature", "properties": { "osm_id": "132228340", "code": 2304, "fclass": "pub", "name": "The Old Punch Bowl" }, "geometry": { "type": "Point", "coordinates": [ -6.1966601, 53.3087656 ] } },
{ "type": "Feature", "properties": { "osm_id": "132234957", "code": 2721, "fclass": "attraction", "name": "Poolbeg Yacht & Boat Club" }, "geometry": { "type": "Point", "coordinates": [ -6.2164699, 53.3432691 ] } },
{ "type": "Feature", "properties": { "osm_id": "132775981", "code": 2404, "fclass": "guesthouse", "name": "The Lombard Townhouse" }, "geometry": { "type": "Point", "coordinates": [ -6.2490045, 53.3442017 ] } },
{ "type": "Feature", "properties": { "osm_id": "132811831", "code": 2304, "fclass": "pub", "name": "Palmerstown House" }, "geometry": { "type": "Point", "coordinates": [ -6.3706215, 53.356444 ] } },
{ "type": "Feature", "properties": { "osm_id": "132814618", "code": 2304, "fclass": "pub", "name": "Silver Granite" }, "geometry": { "type": "Point", "coordinates": [ -6.3774029, 53.3500748 ] } },
{ "type": "Feature", "properties": { "osm_id": "132818030", "code": 2004, "fclass": "post_box", "name": null }, "geometry": { "type": "Point", "coordinates": [ -6.379496, 53.3502503 ] } },
{ "type": "Feature", "properties": { "osm_id": "132822606", "code": 2004, "fclass": "post_box", "name": null }, "geometry": { "type": "Point", "coordinates": [ -6.3678696, 53.3512696 ] } },
{ "type": "Feature", "properties": { "osm_id": "132831833", "code": 2304, "fclass": "pub", "name": "The Ark" }, "geometry": { "type": "Point", "coordinates": [ -6.4028674, 53.3541515 ] } },
{ "type": "Feature", "properties": { "osm_id": "133193958", "code": 2304, "fclass": "pub", "name": "The Barge" }, "geometry": { "type": "Point", "coordinates": [ -6.2605878, 53.3305512 ] } },
{ "type": "Feature", "properties": { "osm_id": "133511176", "code": 2302, "fclass": "fast_food", "name": "Domino's" }, "geometry": { "type": "Point", "coordinates": [ -6.3772169, 53.3776795 ] } },
{ "type": "Feature", "properties": { "osm_id": "135571850", "code": 2401, "fclass": "hotel", "name": "West County Hotel" }, "geometry": { "type": "Point", "coordinates": [ -6.3559151, 53.3514644 ] } },
{ "type": "Feature", "properties": { "osm_id": "140653711", "code": 2721, "fclass": "attraction", "name": "General Post Office" }, "geometry": { "type": "Point", "coordinates": [ -6.2604887, 53.3492426 ] } },
{ "type": "Feature", "properties": { "osm_id": "140706284", "code": 2722, "fclass": "museum", "name": "National Museum of Ireland, Collins' Barracks" }, "geometry": { "type": "Point", "coordinates": [ -6.2875394, 53.3483843 ] } },
{ "type": "Feature", "properties": { "osm_id": "141882913", "code": 2005, "fclass": "post_office", "name": "Blanchardstown Centre Post Office" }, "geometry": { "type": "Point", "coordinates": [ -6.3920177, 53.3921594 ] } },
{ "type": "Feature", "properties": { "osm_id": "146266173", "code": 2004, "fclass": "post_box", "name": null }, "geometry": { "type": "Point", "coordinates": [ -6.2088526, 53.2993319 ] } },
{ "type": "Feature", "properties": { "osm_id": "163132015", "code": 2101, "fclass": "pharmacy", "name": "Corrigan's Pharmacy" }, "geometry": { "type": "Point", "coordinates": [ -6.2267257, 53.3679711 ] } },
{ "type": "Feature", "properties": { "osm_id": "163137987", "code": 2004, "fclass": "post_box", "name": null }, "geometry": { "type": "Point", "coordinates": [ -6.2471038, 53.349545 ] } },
{ "type": "Feature", "properties": { "osm_id": "187768500", "code": 2501, "fclass": "supermarket", "name": "Tesco" }, "geometry": { "type": "Point", "coordinates": [ -6.1796922, 53.4009558 ] } },
{ "type": "Feature", "properties": { "osm_id": "192606724", "code": 2004, "fclass": "post_box", "name": null }, "geometry": { "type": "Point", "coordinates": [ -6.1804255, 53.2963551 ] } },
{ "type": "Feature", "properties": { "osm_id": "192606734", "code": 2004, "fclass": "post_box", "name": null }, "geometry": { "type": "Point", "coordinates": [ -6.205608, 53.2954795 ] } },
{ "type": "Feature", "properties": { "osm_id": "194537881", "code": 2004, "fclass": "post_box", "name": null }, "geometry": { "type": "Point", "coordinates": [ -6.1973449, 53.2944278 ] } },
{ "type": "Feature", "properties": { "osm_id": "197475690", "code": 2004, "fclass": "post_box", "name": null }, "geometry": { "type": "Point", "coordinates": [ -6.186809, 53.3045521 ] } },
{ "type": "Feature", "properties": { "osm_id": "243494144", "code": 2592, "fclass": "vending_parking", "name": null }, "geometry": { "type": "Point", "coordinates": [ -6.2521435, 53.3360636 ] } },
{ "type": "Feature", "properties": { "osm_id": "243783190", "code": 2001, "fclass": "police", "name": "Ballyfermot Garda Station" }, "geometry": { "type": "Point", "coordinates": [ -6.3579922, 53.3447285 ] } },
{ "type": "Feature", "properties": { "osm_id": "246166592", "code": 2013, "fclass": "nursing_home", "name": "Glenaulin Nursing Home" }, "geometry": { "type": "Point", "coordinates": [ -6.355207, 53.3528538 ] } },
{ "type": "Feature", "properties": { "osm_id": "247736480", "code": 2004, "fclass": "post_box", "name": null }, "geometry": { "type": "Point", "coordinates": [ -6.2401109, 53.3755107 ] } },
{ "type": "Feature", "properties": { "osm_id": "249338235", "code": 2501, "fclass": "supermarket", "name": "SuperValu" }, "geometry": { "type": "Point", "coordinates": [ -6.3788096, 53.3861819 ] } },
{ "type": "Feature", "properties": { "osm_id": "249421155", "code": 2004, "fclass": "post_box", "name": null }, "geometry": { "type": "Point", "coordinates": [ -6.2302626, 53.3785311 ] } },
{ "type": "Feature", "properties": { "osm_id": "249424786", "code": 2006, "fclass": "telephone", "name": null }, "geometry": { "type": "Point", "coordinates": [ -6.2218162, 53.3730899 ] } },
{ "type": "Feature", "properties": { "osm_id": "249426205", "code": 2304, "fclass": "pub", "name": "Marino House (Kavanagh's)" }, "geometry": { "type": "Point", "coordinates": [ -6.2288162, 53.365756 ] } },
{ "type": "Feature", "properties": { "osm_id": "249426547", "code": 2906, "fclass": "waste_basket", "name": null }, "geometry": { "type": "Point", "coordinates": [ -6.23093, 53.3643685 ] } },
{ "type": "Feature", "properties": { "osm_id": "249427037", "code": 2101, "fclass": "pharmacy", "name": "McCartan's Pharmacy" }, "geometry": { "type": "Point", "coordinates": [ -6.239129, 53.362682 ] } },
{ "type": "Feature", "properties": { "osm_id": "249428162", "code": 2004, "fclass": "post_box", "name": null }, "geometry": { "type": "Point", "coordinates": [ -6.2436734, 53.3568341 ] } },
{ "type": "Feature", "properties": { "osm_id": "249429114", "code": 2004, "fclass": "post_box", "name": null }, "geometry": { "type": "Point", "coordinates": [ -6.2480787, 53.353558 ] } },
{ "type": "Feature", "properties": { "osm_id": "249430226", "code": 2514, "fclass": "chemist", "name": null }, "geometry": { "type": "Point", "coordinates": [ -6.2557289, 53.3504156 ] } },
{ "type": "Feature", "properties": { "osm_id": "249430780", "code": 2401, "fclass": "hotel", "name": "Clifton Court Hotel" }, "geometry": { "type": "Point", "coordinates": [ -6.2579869, 53.3480011 ] } },
{ "type": "Feature", "properties": { "osm_id": "249437314", "code": 2004, "fclass": "post_box", "name": null }, "geometry": { "type": "Point", "coordinates": [ -6.2361462, 53.3717294 ] } },
{ "type": "Feature", "properties": { "osm_id": "251007680", "code": 2004, "fclass": "post_box", "name": "Garville Ave / Rathgar Ave" }, "geometry": { "type": "Point", "coordinates": [ -6.2758076, 53.3155908 ] } },
{ "type": "Feature", "properties": { "osm_id": "254947434", "code": 2602, "fclass": "atm", "name": "Bank of Ireland" }, "geometry": { "type": "Point", "coordinates": [ -6.3931226, 53.3524793 ] } },
{ "type": "Feature", "properties": { "osm_id": "254949231", "code": 2203, "fclass": "cinema", "name": "Vue Cinema Dublin" }, "geometry": { "type": "Point", "coordinates": [ -6.3937193, 53.3521093 ] } },
{ "type": "Feature", "properties": { "osm_id": "255016301", "code": 2602, "fclass": "atm", "name": "Ulster Bank" }, "geometry": { "type": "Point", "coordinates": [ -6.2457022, 53.3339606 ] } },
{ "type": "Feature", "properties": { "osm_id": "255016786", "code": 2602, "fclass": "atm", "name": "AIB" }, "geometry": { "type": "Point", "coordinates": [ -6.2589453, 53.3454619 ] } },
{ "type": "Feature", "properties": { "osm_id": "255372533", "code": 2602, "fclass": "atm", "name": "AIB" }, "geometry": { "type": "Point", "coordinates": [ -6.2530504, 53.33808 ] } },
{ "type": "Feature", "properties": { "osm_id": "255372535", "code": 2602, "fclass": "atm", "name": null }, "geometry": { "type": "Point", "coordinates": [ -6.2522932, 53.3377383 ] } },
{ "type": "Feature", "properties": { "osm_id": "255372749", "code": 2602, "fclass": "atm", "name": "Ulster Bank" }, "geometry": { "type": "Point", "coordinates": [ -6.2598617, 53.3442032 ] } },
{ "type": "Feature", "properties": { "osm_id": "255622771", "code": 2725, "fclass": "artwork", "name": "Noah’s Egg" }, "geometry": { "type": "Point", "coordinates": [ -6.2230723, 53.3088664 ] } },
{ "type": "Feature", "properties": { "osm_id": "256258286", "code": 2304, "fclass": "pub", "name": "The Clubhouse" }, "geometry": { "type": "Point", "coordinates": [ -6.22707, 53.3082485 ] } },
{ "type": "Feature", "properties": { "osm_id": "256889378", "code": 2602, "fclass": "atm", "name": "AIB" }, "geometry": { "type": "Point", "coordinates": [ -6.2203387, 53.3053431 ] } },
{ "type": "Feature", "properties": { "osm_id": "256889411", "code": 2602, "fclass": "atm", "name": "AIB" }, "geometry": { "type": "Point", "coordinates": [ -6.226351, 53.3083526 ] } },
{ "type": "Feature", "properties": { "osm_id": "256896366", "code": 2602, "fclass": "atm", "name": "Bank of Ireland" }, "geometry": { "type": "Point", "coordinates": [ -6.2620085, 53.3400283 ] } },
{ "type": "Feature", "properties": { "osm_id": "257168560", "code": 2004, "fclass": "post_box", "name": null }, "geometry": { "type": "Point", "coordinates": [ -6.3961135, 53.3849346 ] } },
{ "type": "Feature", "properties": { "osm_id": "257168819", "code": 2401, "fclass": "hotel", "name": "Crowne Plaza Hotel Northwood" }, "geometry": { "type": "Point", "coordinates": [ -6.2457448, 53.4044085 ] } },
{ "type": "Feature", "properties": { "osm_id": "259552573", "code": 2725, "fclass": "artwork", "name": "Patrick Kavanagh" }, "geometry": { "type": "Point", "coordinates": [ -6.2479438, 53.3335971 ] } },
{ "type": "Feature", "properties": { "osm_id": "259770616", "code": 2511, "fclass": "convenience", "name": "Straney's Newsagent" }, "geometry": { "type": "Point", "coordinates": [ -6.1890586, 53.3007671 ] } },
{ "type": "Feature", "properties": { "osm_id": "263813948", "code": 2004, "fclass": "post_box", "name": null }, "geometry": { "type": "Point", "coordinates": [ -6.2567596, 53.3459359 ] } },
{ "type": "Feature", "properties": { "osm_id": "269349732", "code": 2011, "fclass": "embassy", "name": "Embassy of the Republic of Kenya" }, "geometry": { "type": "Point", "coordinates": [ -6.2339748, 53.329708 ] } },
{ "type": "Feature", "properties": { "osm_id": "278842440", "code": 2904, "fclass": "fountain", "name": "The Three Fates" }, "geometry": { "type": "Point", "coordinates": [ -6.2577092, 53.3367813 ] } },
{ "type": "Feature", "properties": { "osm_id": "278842440", "code": 2725, "fclass": "artwork", "name": "The Three Fates" }, "geometry": { "type": "Point", "coordinates": [ -6.2577092, 53.3367813 ] } },
{ "type": "Feature", "properties": { "osm_id": "278842448", "code": 2723, "fclass": "monument", "name": "Wolfe Tone" }, "geometry": { "type": "Point", "coordinates": [ -6.2562027, 53.338386 ] } },
{ "type": "Feature", "properties": { "osm_id": "278842461", "code": 2723, "fclass": "monument", "name": "Lord Ardilaun" }, "geometry": { "type": "Point", "coordinates": [ -6.2613946, 53.3386349 ] } },
{ "type": "Feature", "properties": { "osm_id": "278846172", "code": 2723, "fclass": "monument", "name": "W.B. Yeats" }, "geometry": { "type": "Point", "coordinates": [ -6.2603763, 53.3383664 ] } },
{ "type": "Feature", "properties": { "osm_id": "278846276", "code": 2723, "fclass": "monument", "name": "James Joyce" }, "geometry": { "type": "Point", "coordinates": [ -6.258859, 53.3405879 ] } },
{ "type": "Feature", "properties": { "osm_id": "278846278", "code": 2723, "fclass": "monument", "name": "Constance Markievicz" }, "geometry": { "type": "Point", "coordinates": [ -6.2590067, 53.3378173 ] } },
{ "type": "Feature", "properties": { "osm_id": "278846280", "code": 2723, "fclass": "monument", "name": "Thomas M. Kettle" }, "geometry": { "type": "Point", "coordinates": [ -6.2582862, 53.3380704 ] } },
{ "type": "Feature", "properties": { "osm_id": "278846286", "code": 2723, "fclass": "monument", "name": "Mangan" }, "geometry": { "type": "Point", "coordinates": [ -6.2599596, 53.338096 ] } },
{ "type": "Feature", "properties": { "osm_id": "278857697", "code": 2405, "fclass": "hostel", "name": "Avalon House" }, "geometry": { "type": "Point", "coordinates": [ -6.266343, 53.3395516 ] } },
{ "type": "Feature", "properties": { "osm_id": "278857702", "code": 2301, "fclass": "restaurant", "name": "La Gondola" }, "geometry": { "type": "Point", "coordinates": [ -6.2619477, 53.3457882 ] } },
{ "type": "Feature", "properties": { "osm_id": "278857703", "code": 2301, "fclass": "restaurant", "name": "Gogarty's" }, "geometry": { "type": "Point", "coordinates": [ -6.2611513, 53.345785 ] } },
{ "type": "Feature", "properties": { "osm_id": "278857890", "code": 2202, "fclass": "nightclub", "name": "Club M" }, "geometry": { "type": "Point", "coordinates": [ -6.2623304, 53.3448128 ] } },
{ "type": "Feature", "properties": { "osm_id": "279042316", "code": 2404, "fclass": "guesthouse", "name": "ABC House B&B" }, "geometry": { "type": "Point", "coordinates": [ -6.2520715, 53.3741096 ] } },
{ "type": "Feature", "properties": { "osm_id": "279042317", "code": 2404, "fclass": "guesthouse", "name": "Azalea Lodge B&B" }, "geometry": { "type": "Point", "coordinates": [ -6.2519218, 53.3743958 ] } },
{ "type": "Feature", "properties": { "osm_id": "279363879", "code": 2301, "fclass": "restaurant", "name": "Thunder Road Cafe" }, "geometry": { "type": "Point", "coordinates": [ -6.2612215, 53.3456174 ] } },
{ "type": "Feature", "properties": { "osm_id": "279363883", "code": 2303, "fclass": "cafe", "name": "The Joy of Chá" }, "geometry": { "type": "Point", "coordinates": [ -6.2661036, 53.3451923 ] } },
{ "type": "Feature", "properties": { "osm_id": "279367505", "code": 2014, "fclass": "arts_centre", "name": "Project Arts Centre" }, "geometry": { "type": "Point", "coordinates": [ -6.2663248, 53.3449489 ] } },
{ "type": "Feature", "properties": { "osm_id": "279367508", "code": 2201, "fclass": "theatre", "name": "The New Theatre" }, "geometry": { "type": "Point", "coordinates": [ -6.2665279, 53.3449227 ] } },
{ "type": "Feature", "properties": { "osm_id": "279464425", "code": 2304, "fclass": "pub", "name": "The Lower Deck" }, "geometry": { "type": "Point", "coordinates": [ -6.2652379, 53.330686 ] } },
{ "type": "Feature", "properties": { "osm_id": "279465715", "code": 2907, "fclass": "camera_surveillance", "name": null }, "geometry": { "type": "Point", "coordinates": [ -6.2626337, 53.333913 ] } },
{ "type": "Feature", "properties": { "osm_id": "279912234", "code": 2301, "fclass": "restaurant", "name": "La Pizza" }, "geometry": { "type": "Point", "coordinates": [ -6.260424, 53.3510617 ] } },
{ "type": "Feature", "properties": { "osm_id": "279912235", "code": 2701, "fclass": "tourist_info", "name": "Discover Ireland Centre" }, "geometry": { "type": "Point", "coordinates": [ -6.2603275, 53.3509496 ] } },
{ "type": "Feature", "properties": { "osm_id": "279912237", "code": 2302, "fclass": "fast_food", "name": "Burger King" }, "geometry": { "type": "Point", "coordinates": [ -6.2601744, 53.3505366 ] } },
{ "type": "Feature", "properties": { "osm_id": "279915988", "code": 2304, "fclass": "pub", "name": "Arlington Bar & Restaurant" }, "geometry": { "type": "Point", "coordinates": [ -6.2609325, 53.3472522 ] } },
{ "type": "Feature", "properties": { "osm_id": "279920366", "code": 2004, "fclass": "post_box", "name": null }, "geometry": { "type": "Point", "coordinates": [ -6.2511492, 53.3413482 ] } },
{ "type": "Feature", "properties": { "osm_id": "280123269", "code": 2305, "fclass": "bar", "name": "Bar@Tolka" }, "geometry": { "type": "Point", "coordinates": [ -6.2512678, 53.3676758 ] } },
{ "type": "Feature", "properties": { "osm_id": "280958210", "code": 2304, "fclass": "pub", "name": "Fallon’s" }, "geometry": { "type": "Point", "coordinates": [ -6.2733761, 53.3389839 ] } },
{ "type": "Feature", "properties": { "osm_id": "280983584", "code": 2602, "fclass": "atm", "name": null }, "geometry": { "type": "Point", "coordinates": [ -6.2520484, 53.3728045 ] } },
{ "type": "Feature", "properties": { "osm_id": "281174255", "code": 2501, "fclass": "supermarket", "name": "Fresh" }, "geometry": { "type": "Point", "coordinates": [ -6.2388322, 53.3432408 ] } },
{ "type": "Feature", "properties": { "osm_id": "281174464", "code": 2501, "fclass": "supermarket", "name": "Centra" }, "geometry": { "type": "Point", "coordinates": [ -6.2441791, 53.3432637 ] } },
{ "type": "Feature", "properties": { "osm_id": "281176049", "code": 2004, "fclass": "post_box", "name": "Erne Street Upper" }, "geometry": { "type": "Point", "coordinates": [ -6.244741, 53.3429819 ] } },
{ "type": "Feature", "properties": { "osm_id": "281260257", "code": 2302, "fclass": "fast_food", "name": "McDonald's" }, "geometry": { "type": "Point", "coordinates": [ -6.2986591, 53.3614673 ] } },
{ "type": "Feature", "properties": { "osm_id": "282342105", "code": 2304, "fclass": "pub", "name": "The Wind Jammer" }, "geometry": { "type": "Point", "coordinates": [ -6.2483476, 53.3452765 ] } },
{ "type": "Feature", "properties": { "osm_id": "282961930", "code": 2031, "fclass": "recycling_glass", "name": null }, "geometry": { "type": "Point", "coordinates": [ -6.2967209, 53.2982351 ] } },
{ "type": "Feature", "properties": { "osm_id": "282964919", "code": 2602, "fclass": "atm", "name": null }, "geometry": { "type": "Point", "coordinates": [ -6.3031729, 53.2988463 ] } },
{ "type": "Feature", "properties": { "osm_id": "282964922", "code": 2004, "fclass": "post_box", "name": null }, "geometry": { "type": "Point", "coordinates": [ -6.3032584, 53.2984161 ] } },
{ "type": "Feature", "properties": { "osm_id": "282968362", "code": 2301, "fclass": "restaurant", "name": "Chrysanthemum Chinese Restaurant" }, "geometry": { "type": "Point", "coordinates": [ -6.3002428, 53.2939748 ] } },
{ "type": "Feature", "properties": { "osm_id": "282969385", "code": 2302, "fclass": "fast_food", "name": "Little Caesars" }, "geometry": { "type": "Point", "coordinates": [ -6.2999293, 53.2938175 ] } },
{ "type": "Feature", "properties": { "osm_id": "284164035", "code": 2401, "fclass": "hotel", "name": "Clayton Hotel" }, "geometry": { "type": "Point", "coordinates": [ -6.2249092, 53.3256584 ] } },
{ "type": "Feature", "properties": { "osm_id": "290135993", "code": 2602, "fclass": "atm", "name": "AIB Churchtown" }, "geometry": { "type": "Point", "coordinates": [ -6.2602274, 53.2964238 ] } },
{ "type": "Feature", "properties": { "osm_id": "291226660", "code": 2004, "fclass": "post_box", "name": null }, "geometry": { "type": "Point", "coordinates": [ -6.3048215, 53.2940785 ] } },
{ "type": "Feature", "properties": { "osm_id": "291594604", "code": 2501, "fclass": "supermarket", "name": "Eurospar" }, "geometry": { "type": "Point", "coordinates": [ -6.2362398, 53.3402787 ] } },
{ "type": "Feature", "properties": { "osm_id": "291776562", "code": 2303, "fclass": "cafe", "name": "The Bagel Bar" }, "geometry": { "type": "Point", "coordinates": [ -6.263717, 53.3478437 ] } },
{ "type": "Feature", "properties": { "osm_id": "292180677", "code": 2723, "fclass": "monument", "name": "The Phoenix Monument" }, "geometry": { "type": "Point", "coordinates": [ -6.3258407, 53.3601333 ] } },
{ "type": "Feature", "properties": { "osm_id": "292180999", "code": 2004, "fclass": "post_box", "name": null }, "geometry": { "type": "Point", "coordinates": [ -6.2602046, 53.2959154 ] } },
{ "type": "Feature", "properties": { "osm_id": "293721321", "code": 2723, "fclass": "monument", "name": "The Phoenix" }, "geometry": { "type": "Point", "coordinates": [ -6.2454319, 53.4020992 ] } },
{ "type": "Feature", "properties": { "osm_id": "293721803", "code": 2401, "fclass": "hotel", "name": "Express by Holiday Inn" }, "geometry": { "type": "Point", "coordinates": [ -6.2446897, 53.4043233 ] } },
{ "type": "Feature", "properties": { "osm_id": "296218473", "code": 2004, "fclass": "post_box", "name": null }, "geometry": { "type": "Point", "coordinates": [ -6.3886083, 53.3848075 ] } },
{ "type": "Feature", "properties": { "osm_id": "297477453", "code": 2004, "fclass": "post_box", "name": null }, "geometry": { "type": "Point", "coordinates": [ -6.2207709, 53.2949527 ] } },
{ "type": "Feature", "properties": { "osm_id": "297812081", "code": 2511, "fclass": "convenience", "name": "Spar" }, "geometry": { "type": "Point", "coordinates": [ -6.3676759, 53.3931343 ] } },
{ "type": "Feature", "properties": { "osm_id": "298085721", "code": 2904, "fclass": "fountain", "name": "Four Angels Fountain" }, "geometry": { "type": "Point", "coordinates": [ -6.2605019, 53.3443701 ] } },
{ "type": "Feature", "properties": { "osm_id": "298506249", "code": 2004, "fclass": "post_box", "name": null }, "geometry": { "type": "Point", "coordinates": [ -6.2576506, 53.3893443 ] } },
{ "type": "Feature", "properties": { "osm_id": "298506534", "code": 2004, "fclass": "post_box", "name": null }, "geometry": { "type": "Point", "coordinates": [ -6.2482574, 53.3925108 ] } },
{ "type": "Feature", "properties": { "osm_id": "298506576", "code": 2005, "fclass": "post_office", "name": "Santry Post Office" }, "geometry": { "type": "Point", "coordinates": [ -6.248662, 53.3915744 ] } },
{ "type": "Feature", "properties": { "osm_id": "298514836", "code": 2602, "fclass": "atm", "name": "Bank of Ireland" }, "geometry": { "type": "Point", "coordinates": [ -6.2504008, 53.3514964 ] } },
{ "type": "Feature", "properties": { "osm_id": "298514968", "code": 2602, "fclass": "atm", "name": "Ulster Bank" }, "geometry": { "type": "Point", "coordinates": [ -6.249743, 53.3515003 ] } },
{ "type": "Feature", "properties": { "osm_id": "298515027", "code": 2602, "fclass": "atm", "name": "AIB" }, "geometry": { "type": "Point", "coordinates": [ -6.2546645, 53.3506278 ] } },
{ "type": "Feature", "properties": { "osm_id": "298526706", "code": 2602, "fclass": "atm", "name": null }, "geometry": { "type": "Point", "coordinates": [ -6.249767, 53.3922112 ] } },
{ "type": "Feature", "properties": { "osm_id": "298720610", "code": 2721, "fclass": "attraction", "name": "Saint James' Gate" }, "geometry": { "type": "Point", "coordinates": [ -6.2839544, 53.3422615 ] } },
{ "type": "Feature", "properties": { "osm_id": "298721803", "code": 2304, "fclass": "pub", "name": "Harkin’s" }, "geometry": { "type": "Point", "coordinates": [ -6.2885248, 53.3424988 ] } },
{ "type": "Feature", "properties": { "osm_id": "299224403", "code": 2304, "fclass": "pub", "name": "Vaughan’s Eagle House" }, "geometry": { "type": "Point", "coordinates": [ -6.2832454, 53.3100543 ] } },
{ "type": "Feature", "properties": { "osm_id": "299224475", "code": 2602, "fclass": "atm", "name": null }, "geometry": { "type": "Point", "coordinates": [ -6.2829708, 53.3099774 ] } },
{ "type": "Feature", "properties": { "osm_id": "299225092", "code": 2304, "fclass": "pub", "name": "Brady’s" }, "geometry": { "type": "Point", "coordinates": [ -6.2841368, 53.3098046 ] } },
{ "type": "Feature", "properties": { "osm_id": "300247459", "code": 2544, "fclass": "furniture_shop", "name": "Reid Furniture" }, "geometry": { "type": "Point", "coordinates": [ -6.3423204, 53.3282173 ] } },
{ "type": "Feature", "properties": { "osm_id": "300247464", "code": 2541, "fclass": "car_dealership", "name": "Pat Igoe" }, "geometry": { "type": "Point", "coordinates": [ -6.3497797, 53.3243137 ] } },
{ "type": "Feature", "properties": { "osm_id": "301132218", "code": 2602, "fclass": "atm", "name": "Bank of Ireland" }, "geometry": { "type": "Point", "coordinates": [ -6.3771538, 53.3869303 ] } },
{ "type": "Feature", "properties": { "osm_id": "301132224", "code": 2602, "fclass": "atm", "name": null }, "geometry": { "type": "Point", "coordinates": [ -6.3817422, 53.3829494 ] } },
{ "type": "Feature", "properties": { "osm_id": "301132499", "code": 2602, "fclass": "atm", "name": "AIB" }, "geometry": { "type": "Point", "coordinates": [ -6.3893491, 53.3722389 ] } },
{ "type": "Feature", "properties": { "osm_id": "302202858", "code": 2004, "fclass": "post_box", "name": null }, "geometry": { "type": "Point", "coordinates": [ -6.2113142, 53.3285396 ] } },
{ "type": "Feature", "properties": { "osm_id": "303968050", "code": 2302, "fclass": "fast_food", "name": "The Lido Pearse street" }, "geometry": { "type": "Point", "coordinates": [ -6.2447582, 53.3433273 ] } },
{ "type": "Feature", "properties": { "osm_id": "305303182", "code": 2004, "fclass": "post_box", "name": null }, "geometry": { "type": "Point", "coordinates": [ -6.2673381, 53.3453354 ] } },
{ "type": "Feature", "properties": { "osm_id": "305303892", "code": 2602, "fclass": "atm", "name": null }, "geometry": { "type": "Point", "coordinates": [ -6.2637279, 53.3429222 ] } },
{ "type": "Feature", "properties": { "osm_id": "305304712", "code": 2602, "fclass": "atm", "name": null }, "geometry": { "type": "Point", "coordinates": [ -6.2642374, 53.3427834 ] } },
{ "type": "Feature", "properties": { "osm_id": "305305686", "code": 2004, "fclass": "post_box", "name": "College Green" }, "geometry": { "type": "Point", "coordinates": [ -6.2625819, 53.3443327 ] } },
{ "type": "Feature", "properties": { "osm_id": "305306392", "code": 2602, "fclass": "atm", "name": null }, "geometry": { "type": "Point", "coordinates": [ -6.2672013, 53.3446376 ] } },
{ "type": "Feature", "properties": { "osm_id": "305312829", "code": 2304, "fclass": "pub", "name": "Sin É" }, "geometry": { "type": "Point", "coordinates": [ -6.2695992, 53.345976 ] } },
{ "type": "Feature", "properties": { "osm_id": "305312854", "code": 2524, "fclass": "outdoor_shop", "name": "Cotswold Outdoor" }, "geometry": { "type": "Point", "coordinates": [ -6.2619456, 53.3435518 ] } },
{ "type": "Feature", "properties": { "osm_id": "305313396", "code": 2502, "fclass": "bakery", "name": "The Bakery" }, "geometry": { "type": "Point", "coordinates": [ -6.2686326, 53.3446102 ] } },
{ "type": "Feature", "properties": { "osm_id": "306276661", "code": 2304, "fclass": "pub", "name": "O'Reilly's" }, "geometry": { "type": "Point", "coordinates": [ -6.254074, 53.3470972 ] } },
{ "type": "Feature", "properties": { "osm_id": "307667725", "code": 2004, "fclass": "post_box", "name": null }, "geometry": { "type": "Point", "coordinates": [ -6.3789925, 53.3472106 ] } },
{ "type": "Feature", "properties": { "osm_id": "307861639", "code": 2004, "fclass": "post_box", "name": null }, "geometry": { "type": "Point", "coordinates": [ -6.3810294, 53.3835628 ] } },
{ "type": "Feature", "properties": { "osm_id": "307861641", "code": 2006, "fclass": "telephone", "name": null }, "geometry": { "type": "Point", "coordinates": [ -6.3810069, 53.3835287 ] } },
{ "type": "Feature", "properties": { "osm_id": "307956290", "code": 2401, "fclass": "hotel", "name": "Crowne Plaza" }, "geometry": { "type": "Point", "coordinates": [ -6.3902944, 53.395784 ] } },
{ "type": "Feature", "properties": { "osm_id": "308961349", "code": 2511, "fclass": "convenience", "name": "Spar" }, "geometry": { "type": "Point", "coordinates": [ -6.2317518, 53.3491387 ] } },
{ "type": "Feature", "properties": { "osm_id": "310407193", "code": 2301, "fclass": "restaurant", "name": "Ukiyo Bar" }, "geometry": { "type": "Point", "coordinates": [ -6.2635746, 53.3431117 ] } },
{ "type": "Feature", "properties": { "osm_id": "310407690", "code": 2303, "fclass": "cafe", "name": "Bittersweet Cafe" }, "geometry": { "type": "Point", "coordinates": [ -6.2688365, 53.3437335 ] } },
{ "type": "Feature", "properties": { "osm_id": "310407929", "code": 2521, "fclass": "gift_shop", "name": "Carroll's" }, "geometry": { "type": "Point", "coordinates": [ -6.2658706, 53.3442807 ] } },
{ "type": "Feature", "properties": { "osm_id": "310407960", "code": 2602, "fclass": "atm", "name": "AIB" }, "geometry": { "type": "Point", "coordinates": [ -6.2659743, 53.3440809 ] } },
{ "type": "Feature", "properties": { "osm_id": "310408293", "code": 2305, "fclass": "bar", "name": "The Bull & Castle Bar" }, "geometry": { "type": "Point", "coordinates": [ -6.2698697, 53.3434574 ] } },
{ "type": "Feature", "properties": { "osm_id": "310408465", "code": 2301, "fclass": "restaurant", "name": "The Market Bar" }, "geometry": { "type": "Point", "coordinates": [ -6.2640639, 53.3420622 ] } },
{ "type": "Feature", "properties": { "osm_id": "310409691", "code": 2301, "fclass": "restaurant", "name": "Saba" }, "geometry": { "type": "Point", "coordinates": [ -6.2617894, 53.341264 ] } },
{ "type": "Feature", "properties": { "osm_id": "311099928", "code": 2304, "fclass": "pub", "name": "Woolshed Baa & Grill" }, "geometry": { "type": "Point", "coordinates": [ -6.2674686, 53.3502671 ] } },
{ "type": "Feature", "properties": { "osm_id": "311100348", "code": 2511, "fclass": "convenience", "name": "Spar" }, "geometry": { "type": "Point", "coordinates": [ -6.2632578, 53.3472105 ] } },
{ "type": "Feature", "properties": { "osm_id": "311298974", "code": 2524, "fclass": "outdoor_shop", "name": "Basecamp" }, "geometry": { "type": "Point", "coordinates": [ -6.2670631, 53.3494914 ] } },
{ "type": "Feature", "properties": { "osm_id": "311299258", "code": 2526, "fclass": "toy_shop", "name": "Smyths" }, "geometry": { "type": "Point", "coordinates": [ -6.2671154, 53.3496011 ] } },
{ "type": "Feature", "properties": { "osm_id": "311321667", "code": 2004, "fclass": "post_box", "name": null }, "geometry": { "type": "Point", "coordinates": [ -6.2694331, 53.3459585 ] } },
{ "type": "Feature", "properties": { "osm_id": "311343801", "code": 2501, "fclass": "supermarket", "name": "M&S Foodhall" }, "geometry": { "type": "Point", "coordinates": [ -6.2643181, 53.3484361 ] } },
{ "type": "Feature", "properties": { "osm_id": "311344008", "code": 2501, "fclass": "supermarket", "name": "Tesco" }, "geometry": { "type": "Point", "coordinates": [ -6.265225, 53.3480715 ] } },
{ "type": "Feature", "properties": { "osm_id": "311990080", "code": 2511, "fclass": "convenience", "name": "Spar" }, "geometry": { "type": "Point", "coordinates": [ -6.2553078, 53.3253867 ] } },
{ "type": "Feature", "properties": { "osm_id": "311991924", "code": 2302, "fclass": "fast_food", "name": "Diep At Home" }, "geometry": { "type": "Point", "coordinates": [ -6.2548022, 53.3253828 ] } },
{ "type": "Feature", "properties": { "osm_id": "312565518", "code": 2303, "fclass": "cafe", "name": "The Bridge Cafe" }, "geometry": { "type": "Point", "coordinates": [ -6.2281361, 53.3416287 ] } },
{ "type": "Feature", "properties": { "osm_id": "312565824", "code": 2304, "fclass": "pub", "name": "Oarsman" }, "geometry": { "type": "Point", "coordinates": [ -6.2277525, 53.3416674 ] } },
{ "type": "Feature", "properties": { "osm_id": "312566081", "code": 2304, "fclass": "pub", "name": "John Clarke and Sons" }, "geometry": { "type": "Point", "coordinates": [ -6.2275707, 53.3416876 ] } },
{ "type": "Feature", "properties": { "osm_id": "312568591", "code": 2005, "fclass": "post_office", "name": "Ringsend Post Office" }, "geometry": { "type": "Point", "coordinates": [ -6.2358948, 53.3401223 ] } },
{ "type": "Feature", "properties": { "osm_id": "312568603", "code": 2511, "fclass": "convenience", "name": "Tesco Express" }, "geometry": { "type": "Point", "coordinates": [ -6.2261202, 53.3412034 ] } },
{ "type": "Feature", "properties": { "osm_id": "312569618", "code": 2101, "fclass": "pharmacy", "name": "Shelbourne Pharmacy" }, "geometry": { "type": "Point", "coordinates": [ -6.2239447, 53.339949 ] } },
{ "type": "Feature", "properties": { "osm_id": "312569767", "code": 2304, "fclass": "pub", "name": "The Vintage Inn" }, "geometry": { "type": "Point", "coordinates": [ -6.2229321, 53.3386881 ] } },
{ "type": "Feature", "properties": { "osm_id": "312569935", "code": 2304, "fclass": "pub", "name": "The Merry Cobbler" }, "geometry": { "type": "Point", "coordinates": [ -6.2225999, 53.3385836 ] } },
{ "type": "Feature", "properties": { "osm_id": "312574900", "code": 2304, "fclass": "pub", "name": "Sandymount House" }, "geometry": { "type": "Point", "coordinates": [ -6.2152784, 53.3323885 ] } },
{ "type": "Feature", "properties": { "osm_id": "312574927", "code": 2304, "fclass": "pub", "name": "O’Reilly’s" }, "geometry": { "type": "Point", "coordinates": [ -6.2152427, 53.3328247 ] } },
{ "type": "Feature", "properties": { "osm_id": "312575196", "code": 2101, "fclass": "pharmacy", "name": "Sandymount Pharmacy" }, "geometry": { "type": "Point", "coordinates": [ -6.2152035, 53.332312 ] } },
{ "type": "Feature", "properties": { "osm_id": "312575573", "code": 2129, "fclass": "veterinary", "name": "Sandymount Pet Hospital" }, "geometry": { "type": "Point", "coordinates": [ -6.2159963, 53.3309798 ] } },
{ "type": "Feature", "properties": { "osm_id": "312576602", "code": 2304, "fclass": "pub", "name": "Horse Show House" }, "geometry": { "type": "Point", "coordinates": [ -6.2289281, 53.3285197 ] } },
{ "type": "Feature", "properties": { "osm_id": "312576639", "code": 2304, "fclass": "pub", "name": "Paddy Cullen" }, "geometry": { "type": "Point", "coordinates": [ -6.230281, 53.3290182 ] } },
{ "type": "Feature", "properties": { "osm_id": "312576904", "code": 2304, "fclass": "pub", "name": "Mary Mac’s" }, "geometry": { "type": "Point", "coordinates": [ -6.2303733, 53.3290475 ] } },
{ "type": "Feature", "properties": { "osm_id": "312577264", "code": 2304, "fclass": "pub", "name": "Crowe’s" }, "geometry": { "type": "Point", "coordinates": [ -6.2305605, 53.3291081 ] } },
{ "type": "Feature", "properties": { "osm_id": "312577430", "code": 2511, "fclass": "convenience", "name": "Spar" }, "geometry": { "type": "Point", "coordinates": [ -6.2307087, 53.3291601 ] } },
{ "type": "Feature", "properties": { "osm_id": "312577644", "code": 2101, "fclass": "pharmacy", "name": "Life Pharmacy" }, "geometry": { "type": "Point", "coordinates": [ -6.230825, 53.3292058 ] } },
{ "type": "Feature", "properties": { "osm_id": "315252689", "code": 2304, "fclass": "pub", "name": "The Terenure Inn" }, "geometry": { "type": "Point", "coordinates": [ -6.2830549, 53.3113561 ] } },
{ "type": "Feature", "properties": { "osm_id": "316301646", "code": 2602, "fclass": "atm", "name": null }, "geometry": { "type": "Point", "coordinates": [ -6.260498, 53.2964436 ] } },
{ "type": "Feature", "properties": { "osm_id": "320034413", "code": 2004, "fclass": "post_box", "name": null }, "geometry": { "type": "Point", "coordinates": [ -6.3804367, 53.3531967 ] } },
{ "type": "Feature", "properties": { "osm_id": "322520617", "code": 2955, "fclass": "lighthouse", "name": "Dun Laoghaire East Lighthouse" }, "geometry": { "type": "Point", "coordinates": [ -6.1270552, 53.3024253 ] } },
{ "type": "Feature", "properties": { "osm_id": "322520639", "code": 2955, "fclass": "lighthouse", "name": "Dun Laoghaire West Lighthouse" }, "geometry": { "type": "Point", "coordinates": [ -6.1308793, 53.3032287 ] } },
{ "type": "Feature", "properties": { "osm_id": "325738029", "code": 2602, "fclass": "atm", "name": "Ulster Bank" }, "geometry": { "type": "Point", "coordinates": [ -6.3640836, 53.3530021 ] } },
{ "type": "Feature", "properties": { "osm_id": "325738036", "code": 2602, "fclass": "atm", "name": null }, "geometry": { "type": "Point", "coordinates": [ -6.3669989, 53.3540585 ] } },
{ "type": "Feature", "properties": { "osm_id": "325747728", "code": 2602, "fclass": "atm", "name": null }, "geometry": { "type": "Point", "coordinates": [ -6.3752642, 53.3562353 ] } },
{ "type": "Feature", "properties": { "osm_id": "325762136", "code": 2302, "fclass": "fast_food", "name": "Roma" }, "geometry": { "type": "Point", "coordinates": [ -6.3706985, 53.3558553 ] } },
{ "type": "Feature", "properties": { "osm_id": "325762143", "code": 2511, "fclass": "convenience", "name": "Londis" }, "geometry": { "type": "Point", "coordinates": [ -6.3709617, 53.3556479 ] } },
{ "type": "Feature", "properties": { "osm_id": "325783580", "code": 2501, "fclass": "supermarket", "name": "Tesco" }, "geometry": { "type": "Point", "coordinates": [ -6.2867075, 53.3561587 ] } },
{ "type": "Feature", "properties": { "osm_id": "330259390", "code": 2004, "fclass": "post_box", "name": null }, "geometry": { "type": "Point", "coordinates": [ -6.2499592, 53.3470086 ] } },
{ "type": "Feature", "properties": { "osm_id": "330260791", "code": 2602, "fclass": "atm", "name": "Ulster Bank" }, "geometry": { "type": "Point", "coordinates": [ -6.2544052, 53.3474083 ] } },
{ "type": "Feature", "properties": { "osm_id": "330262533", "code": 2722, "fclass": "museum", "name": "Science Gallery" }, "geometry": { "type": "Point", "coordinates": [ -6.2505382, 53.3441672 ] } },
{ "type": "Feature", "properties": { "osm_id": "335446803", "code": 2723, "fclass": "monument", "name": "Irish Volunteers memorial" }, "geometry": { "type": "Point", "coordinates": [ -6.271241, 53.3605799 ] } },
{ "type": "Feature", "properties": { "osm_id": "335556524", "code": 2302, "fclass": "fast_food", "name": "Red Chilli Chinese Takeaway" }, "geometry": { "type": "Point", "coordinates": [ -6.3145209, 53.3397338 ] } },
{ "type": "Feature", "properties": { "osm_id": "335556529", "code": 2303, "fclass": "cafe", "name": "La Boulangerie Cafe" }, "geometry": { "type": "Point", "coordinates": [ -6.3145854, 53.3396891 ] } },
{ "type": "Feature", "properties": { "osm_id": "335560561", "code": 2005, "fclass": "post_office", "name": "Kilmainham Post Office" }, "geometry": { "type": "Point", "coordinates": [ -6.3078885, 53.3398344 ] } },
{ "type": "Feature", "properties": { "osm_id": "335569489", "code": 2304, "fclass": "pub", "name": "The Black Lion" }, "geometry": { "type": "Point", "coordinates": [ -6.3208057, 53.3395798 ] } },
{ "type": "Feature", "properties": { "osm_id": "335597675", "code": 2031, "fclass": "recycling_glass", "name": null }, "geometry": { "type": "Point", "coordinates": [ -6.3167766, 53.3396217 ] } },
{ "type": "Feature", "properties": { "osm_id": "335980359", "code": 2304, "fclass": "pub", "name": "The Saint" }, "geometry": { "type": "Point", "coordinates": [ -6.3186912, 53.3395619 ] } },
{ "type": "Feature", "properties": { "osm_id": "335980360", "code": 2501, "fclass": "supermarket", "name": "Eurospar" }, "geometry": { "type": "Point", "coordinates": [ -6.3199786, 53.3392362 ] } },
{ "type": "Feature", "properties": { "osm_id": "336143824", "code": 2421, "fclass": "shelter", "name": null }, "geometry": { "type": "Point", "coordinates": [ -6.2154812, 53.3611174 ] } },
{ "type": "Feature", "properties": { "osm_id": "336143825", "code": 2421, "fclass": "shelter", "name": null }, "geometry": { "type": "Point", "coordinates": [ -6.2135466, 53.3604551 ] } },
{ "type": "Feature", "properties": { "osm_id": "336143870", "code": 2421, "fclass": "shelter", "name": null }, "geometry": { "type": "Point", "coordinates": [ -6.2102343, 53.3599349 ] } },
{ "type": "Feature", "properties": { "osm_id": "336144059", "code": 2421, "fclass": "shelter", "name": null }, "geometry": { "type": "Point", "coordinates": [ -6.2004034, 53.3594126 ] } },
{ "type": "Feature", "properties": { "osm_id": "336144066", "code": 2421, "fclass": "shelter", "name": null }, "geometry": { "type": "Point", "coordinates": [ -6.197517, 53.3589214 ] } },
{ "type": "Feature", "properties": { "osm_id": "336144079", "code": 2421, "fclass": "shelter", "name": null }, "geometry": { "type": "Point", "coordinates": [ -6.1874802, 53.3589583 ] } },
{ "type": "Feature", "properties": { "osm_id": "336144081", "code": 2421, "fclass": "shelter", "name": null }, "geometry": { "type": "Point", "coordinates": [ -6.1836288, 53.3599117 ] } },
{ "type": "Feature", "properties": { "osm_id": "337392342", "code": 2724, "fclass": "memorial", "name": "1916 Easter Rising" }, "geometry": { "type": "Point", "coordinates": [ -6.287334, 53.3509232 ] } },
{ "type": "Feature", "properties": { "osm_id": "337982102", "code": 2302, "fclass": "fast_food", "name": "Toni's" }, "geometry": { "type": "Point", "coordinates": [ -6.3141848, 53.3405884 ] } },
{ "type": "Feature", "properties": { "osm_id": "337982102", "code": 2741, "fclass": "picnic_site", "name": "Toni's" }, "geometry": { "type": "Point", "coordinates": [ -6.3141848, 53.3405884 ] } },
{ "type": "Feature", "properties": { "osm_id": "339208248", "code": 2301, "fclass": "restaurant", "name": "Diep Le Shaker" }, "geometry": { "type": "Point", "coordinates": [ -6.2516856, 53.3365613 ] } },
{ "type": "Feature", "properties": { "osm_id": "339209506", "code": 2401, "fclass": "hotel", "name": "Cliff Town House" }, "geometry": { "type": "Point", "coordinates": [ -6.2571721, 53.33924 ] } },
{ "type": "Feature", "properties": { "osm_id": "339209894", "code": 2005, "fclass": "post_office", "name": "Belfield Post Office" }, "geometry": { "type": "Point", "coordinates": [ -6.2207255, 53.305236 ] } },
{ "type": "Feature", "properties": { "osm_id": "339210281", "code": 2602, "fclass": "atm", "name": "AIB" }, "geometry": { "type": "Point", "coordinates": [ -6.2223513, 53.3068611 ] } },
{ "type": "Feature", "properties": { "osm_id": "339210282", "code": 2004, "fclass": "post_box", "name": null }, "geometry": { "type": "Point", "coordinates": [ -6.222293, 53.3068392 ] } },
{ "type": "Feature", "properties": { "osm_id": "340014942", "code": 2004, "fclass": "post_box", "name": null }, "geometry": { "type": "Point", "coordinates": [ -6.2202616, 53.3052275 ] } },
{ "type": "Feature", "properties": { "osm_id": "340118552", "code": 2601, "fclass": "bank", "name": "Bank of Ireland" }, "geometry": { "type": "Point", "coordinates": [ -6.2150983, 53.3087708 ] } },
{ "type": "Feature", "properties": { "osm_id": "351500514", "code": 2005, "fclass": "post_office", "name": "Erne Street Upper Post Office" }, "geometry": { "type": "Point", "coordinates": [ -6.2448176, 53.3430114 ] } },
{ "type": "Feature", "properties": { "osm_id": "351506286", "code": 2007, "fclass": "library", "name": "Terenure Library" }, "geometry": { "type": "Point", "coordinates": [ -6.2852821, 53.3089834 ] } },
{ "type": "Feature", "properties": { "osm_id": "356046116", "code": 2301, "fclass": "restaurant", "name": "Thai Garden" }, "geometry": { "type": "Point", "coordinates": [ -6.3745776, 53.3855392 ] } },
{ "type": "Feature", "properties": { "osm_id": "358543320", "code": 2304, "fclass": "pub", "name": "Lowes Bar" }, "geometry": { "type": "Point", "coordinates": [ -6.2906371, 53.333764 ] } },
{ "type": "Feature", "properties": { "osm_id": "358543587", "code": 2304, "fclass": "pub", "name": "The Bird Flanagan" }, "geometry": { "type": "Point", "coordinates": [ -6.299192, 53.3365462 ] } },
{ "type": "Feature", "properties": { "osm_id": "358544606", "code": 2005, "fclass": "post_office", "name": "Rialto Post Office" }, "geometry": { "type": "Point", "coordinates": [ -6.2984797, 53.3360206 ] } },
{ "type": "Feature", "properties": { "osm_id": "365324181", "code": 2303, "fclass": "cafe", "name": "Cafe Haven" }, "geometry": { "type": "Point", "coordinates": [ -6.3497812, 53.406501 ] } },
{ "type": "Feature", "properties": { "osm_id": "366363183", "code": 2512, "fclass": "clothes", "name": "Jack Wills" }, "geometry": { "type": "Point", "coordinates": [ -6.261265, 53.3412401 ] } },
{ "type": "Feature", "properties": { "osm_id": "366363184", "code": 2401, "fclass": "hotel", "name": "The Westbury Hotel" }, "geometry": { "type": "Point", "coordinates": [ -6.2615173, 53.3414135 ] } },
{ "type": "Feature", "properties": { "osm_id": "366363185", "code": 2301, "fclass": "restaurant", "name": "One Pico" }, "geometry": { "type": "Point", "coordinates": [ -6.2573287, 53.3405799 ] } },
{ "type": "Feature", "properties": { "osm_id": "367408087", "code": 2030, "fclass": "recycling", "name": null }, "geometry": { "type": "Point", "coordinates": [ -6.2779631, 53.3364193 ] } },
{ "type": "Feature", "properties": { "osm_id": "367411336", "code": 2304, "fclass": "pub", "name": "Hogan’s Bar" }, "geometry": { "type": "Point", "coordinates": [ -6.2646102, 53.3419933 ] } },
{ "type": "Feature", "properties": { "osm_id": "369367336", "code": 2511, "fclass": "convenience", "name": "Spar" }, "geometry": { "type": "Point", "coordinates": [ -6.27892, 53.331687 ] } },
{ "type": "Feature", "properties": { "osm_id": "369367922", "code": 2511, "fclass": "convenience", "name": "Spar" }, "geometry": { "type": "Point", "coordinates": [ -6.2692153, 53.3322445 ] } },
{ "type": "Feature", "properties": { "osm_id": "369368754", "code": 2511, "fclass": "convenience", "name": "Centra" }, "geometry": { "type": "Point", "coordinates": [ -6.2984584, 53.3360471 ] } },
{ "type": "Feature", "properties": { "osm_id": "369369673", "code": 2511, "fclass": "convenience", "name": "Spar" }, "geometry": { "type": "Point", "coordinates": [ -6.2942122, 53.3424908 ] } },
{ "type": "Feature", "properties": { "osm_id": "370213807", "code": 2301, "fclass": "restaurant", "name": "Christophe's" }, "geometry": { "type": "Point", "coordinates": [ -6.2770807, 53.3483367 ] } },
{ "type": "Feature", "properties": { "osm_id": "370213860", "code": 2501, "fclass": "supermarket", "name": "Fresh" }, "geometry": { "type": "Point", "coordinates": [ -6.2783922, 53.3492933 ] } },
{ "type": "Feature", "properties": { "osm_id": "370330157", "code": 2601, "fclass": "bank", "name": "Bank of Ireland" }, "geometry": { "type": "Point", "coordinates": [ -6.1101914, 53.3896403 ] } },
{ "type": "Feature", "properties": { "osm_id": "373218904", "code": 2302, "fclass": "fast_food", "name": "Newland" }, "geometry": { "type": "Point", "coordinates": [ -6.3075146, 53.3408492 ] } },
{ "type": "Feature", "properties": { "osm_id": "373358300", "code": 2004, "fclass": "post_box", "name": null }, "geometry": { "type": "Point", "coordinates": [ -6.262559, 53.320737 ] } },
{ "type": "Feature", "properties": { "osm_id": "385555503", "code": 2005, "fclass": "post_office", "name": "Killester Post Office" }, "geometry": { "type": "Point", "coordinates": [ -6.2064516, 53.3704621 ] } },
{ "type": "Feature", "properties": { "osm_id": "386921698", "code": 2301, "fclass": "restaurant", "name": "The Boat Bar & Restaurant" }, "geometry": { "type": "Point", "coordinates": [ -6.2378335, 53.3470353 ] } },
{ "type": "Feature", "properties": { "osm_id": "387223189", "code": 2302, "fclass": "fast_food", "name": "Subway" }, "geometry": { "type": "Point", "coordinates": [ -6.2444344, 53.3494163 ] } },
{ "type": "Feature", "properties": { "osm_id": "387223272", "code": 2303, "fclass": "cafe", "name": null }, "geometry": { "type": "Point", "coordinates": [ -6.2437735, 53.3494135 ] } },
{ "type": "Feature", "properties": { "osm_id": "387223332", "code": 2505, "fclass": "department_store", "name": "Marks & Spencer" }, "geometry": { "type": "Point", "coordinates": [ -6.2437225, 53.3488672 ] } },
{ "type": "Feature", "properties": { "osm_id": "387501657", "code": 2303, "fclass": "cafe", "name": "Vacant" }, "geometry": { "type": "Point", "coordinates": [ -6.244311, 53.3494051 ] } },
{ "type": "Feature", "properties": { "osm_id": "387527184", "code": 2303, "fclass": "cafe", "name": "Starbucks" }, "geometry": { "type": "Point", "coordinates": [ -6.2478488, 53.3493946 ] } },
{ "type": "Feature", "properties": { "osm_id": "388540789", "code": 2031, "fclass": "recycling_glass", "name": null }, "geometry": { "type": "Point", "coordinates": [ -6.1742406, 53.4092461 ] } },
{ "type": "Feature", "properties": { "osm_id": "388540820", "code": 2031, "fclass": "recycling_glass", "name": null }, "geometry": { "type": "Point", "coordinates": [ -6.1837732, 53.4107037 ] } },
{ "type": "Feature", "properties": { "osm_id": "388541009", "code": 2031, "fclass": "recycling_glass", "name": null }, "geometry": { "type": "Point", "coordinates": [ -6.1486108, 53.3967289 ] } },
{ "type": "Feature", "properties": { "osm_id": "388541010", "code": 2030, "fclass": "recycling", "name": null }, "geometry": { "type": "Point", "coordinates": [ -6.1534405, 53.3926798 ] } },
{ "type": "Feature", "properties": { "osm_id": "388550064", "code": 2031, "fclass": "recycling_glass", "name": null }, "geometry": { "type": "Point", "coordinates": [ -6.1093507, 53.3902681 ] } },
{ "type": "Feature", "properties": { "osm_id": "408986456", "code": 2004, "fclass": "post_box", "name": null }, "geometry": { "type": "Point", "coordinates": [ -6.2662722, 53.3440765 ] } },
{ "type": "Feature", "properties": { "osm_id": "410715220", "code": 2501, "fclass": "supermarket", "name": "Nolan's" }, "geometry": { "type": "Point", "coordinates": [ -6.1946941, 53.3615992 ] } },
{ "type": "Feature", "properties": { "osm_id": "411822908", "code": 2030, "fclass": "recycling", "name": null }, "geometry": { "type": "Point", "coordinates": [ -6.2992449, 53.36132 ] } },
{ "type": "Feature", "properties": { "osm_id": "415802976", "code": 2304, "fclass": "pub", "name": "McGarry’s Bar" }, "geometry": { "type": "Point", "coordinates": [ -6.2795312, 53.3216994 ] } },
{ "type": "Feature", "properties": { "osm_id": "415803254", "code": 2304, "fclass": "pub", "name": "Coman's" }, "geometry": { "type": "Point", "coordinates": [ -6.2748056, 53.312007 ] } },
{ "type": "Feature", "properties": { "osm_id": "416470365", "code": 2405, "fclass": "hostel", "name": "Times Hostel" }, "geometry": { "type": "Point", "coordinates": [ -6.2645588, 53.335442 ] } },
{ "type": "Feature", "properties": { "osm_id": "417809986", "code": 2303, "fclass": "cafe", "name": "The Food Gallery" }, "geometry": { "type": "Point", "coordinates": [ -6.2767538, 53.3430816 ] } },
{ "type": "Feature", "properties": { "osm_id": "428265107", "code": 2004, "fclass": "post_box", "name": null }, "geometry": { "type": "Point", "coordinates": [ -6.2772368, 53.3460909 ] } },
{ "type": "Feature", "properties": { "osm_id": "428266318", "code": 2005, "fclass": "post_office", "name": "Parkgate Street Post Office" }, "geometry": { "type": "Point", "coordinates": [ -6.294597, 53.3482146 ] } },
{ "type": "Feature", "properties": { "osm_id": "428266504", "code": 2004, "fclass": "post_box", "name": null }, "geometry": { "type": "Point", "coordinates": [ -6.2946024, 53.3481666 ] } },
{ "type": "Feature", "properties": { "osm_id": "428509753", "code": 2566, "fclass": "bicycle_rental", "name": "Christchurch Place" }, "geometry": { "type": "Point", "coordinates": [ -6.2700349, 53.3433377 ] } },
{ "type": "Feature", "properties": { "osm_id": "428509755", "code": 2566, "fclass": "bicycle_rental", "name": "Dame Street" }, "geometry": { "type": "Point", "coordinates": [ -6.266596, 53.34395 ] } },
{ "type": "Feature", "properties": { "osm_id": "429382631", "code": 2004, "fclass": "post_box", "name": null }, "geometry": { "type": "Point", "coordinates": [ -6.2699029, 53.3432442 ] } },
{ "type": "Feature", "properties": { "osm_id": "429383562", "code": 2016, "fclass": "market_place", "name": "Cow's Lane Market" }, "geometry": { "type": "Point", "coordinates": [ -6.2690574, 53.3443999 ] } },
{ "type": "Feature", "properties": { "osm_id": "429538108", "code": 2004, "fclass": "post_box", "name": null }, "geometry": { "type": "Point", "coordinates": [ -6.2335949, 53.3371638 ] } },
{ "type": "Feature", "properties": { "osm_id": "429638456", "code": 2721, "fclass": "attraction", "name": "Book of Kells" }, "geometry": { "type": "Point", "coordinates": [ -6.2564874, 53.3439026 ] } },
{ "type": "Feature", "properties": { "osm_id": "429649169", "code": 2011, "fclass": "embassy", "name": "Embassy of Japan in Ireland" }, "geometry": { "type": "Point", "coordinates": [ -6.2134406, 53.3187663 ] } },
{ "type": "Feature", "properties": { "osm_id": "430718416", "code": 2742, "fclass": "viewpoint", "name": "Geographic Pointer" }, "geometry": { "type": "Point", "coordinates": [ -6.1284702, 53.2938553 ] } },
{ "type": "Feature", "properties": { "osm_id": "434153460", "code": 2302, "fclass": "fast_food", "name": "Leo Burdock's" }, "geometry": { "type": "Point", "coordinates": [ -6.2699629, 53.3430272 ] } },
{ "type": "Feature", "properties": { "osm_id": "434153472", "code": 2301, "fclass": "restaurant", "name": "Wagamama" }, "geometry": { "type": "Point", "coordinates": [ -6.2626323, 53.3402505 ] } },
{ "type": "Feature", "properties": { "osm_id": "434153487", "code": 2305, "fclass": "bar", "name": "J P Moonies" }, "geometry": { "type": "Point", "coordinates": [ -6.2548436, 53.3421487 ] } },
{ "type": "Feature", "properties": { "osm_id": "434153497", "code": 2301, "fclass": "restaurant", "name": "Forno 500" }, "geometry": { "type": "Point", "coordinates": [ -6.2662917, 53.3442981 ] } },
{ "type": "Feature", "properties": { "osm_id": "434378090", "code": 2084, "fclass": "college", "name": "Grafton College of Management Sciences" }, "geometry": { "type": "Point", "coordinates": [ -6.2628081, 53.3551013 ] } },
{ "type": "Feature", "properties": { "osm_id": "434379754", "code": 2501, "fclass": "supermarket", "name": "Tesco Metro" }, "geometry": { "type": "Point", "coordinates": [ -6.2638088, 53.3515645 ] } },
{ "type": "Feature", "properties": { "osm_id": "434379755", "code": 2501, "fclass": "supermarket", "name": "Lidl" }, "geometry": { "type": "Point", "coordinates": [ -6.2632744, 53.3510902 ] } },
{ "type": "Feature", "properties": { "osm_id": "440849069", "code": 2004, "fclass": "post_box", "name": null }, "geometry": { "type": "Point", "coordinates": [ -6.3177944, 53.3685182 ] } },
{ "type": "Feature", "properties": { "osm_id": "440849122", "code": 2004, "fclass": "post_box", "name": null }, "geometry": { "type": "Point", "coordinates": [ -6.323534, 53.3704834 ] } },
{ "type": "Feature", "properties": { "osm_id": "440851472", "code": 2004, "fclass": "post_box", "name": null }, "geometry": { "type": "Point", "coordinates": [ -6.310503, 53.3635721 ] } },
{ "type": "Feature", "properties": { "osm_id": "440859893", "code": 2004, "fclass": "post_box", "name": null }, "geometry": { "type": "Point", "coordinates": [ -6.2877069, 53.3729765 ] } },
{ "type": "Feature", "properties": { "osm_id": "441233509", "code": 2512, "fclass": "clothes", "name": null }, "geometry": { "type": "Point", "coordinates": [ -6.333061, 53.3760919 ] } },
{ "type": "Feature", "properties": { "osm_id": "441233552", "code": 2101, "fclass": "pharmacy", "name": "Lloyds Pharmacy" }, "geometry": { "type": "Point", "coordinates": [ -6.333014, 53.3759428 ] } },
{ "type": "Feature", "properties": { "osm_id": "441233784", "code": 2303, "fclass": "cafe", "name": "Douglas & Kaldi" }, "geometry": { "type": "Point", "coordinates": [ -6.3326262, 53.3757818 ] } },
{ "type": "Feature", "properties": { "osm_id": "441270663", "code": 2566, "fclass": "bicycle_rental", "name": "Exchequer Street" }, "geometry": { "type": "Point", "coordinates": [ -6.2634063, 53.3430544 ] } },
{ "type": "Feature", "properties": { "osm_id": "441883330", "code": 2004, "fclass": "post_box", "name": null }, "geometry": { "type": "Point", "coordinates": [ -6.273521, 53.360782 ] } },
{ "type": "Feature", "properties": { "osm_id": "442056199", "code": 2566, "fclass": "bicycle_rental", "name": "Pearse Street" }, "geometry": { "type": "Point", "coordinates": [ -6.2506139, 53.3443039 ] } },
{ "type": "Feature", "properties": { "osm_id": "442056537", "code": 2566, "fclass": "bicycle_rental", "name": "Golden Lane" }, "geometry": { "type": "Point", "coordinates": [ -6.2675719, 53.3407516 ] } },
{ "type": "Feature", "properties": { "osm_id": "442397196", "code": 2601, "fclass": "bank", "name": "AIB" }, "geometry": { "type": "Point", "coordinates": [ -6.2689369, 53.3484294 ] } },
{ "type": "Feature", "properties": { "osm_id": "445431806", "code": 2602, "fclass": "atm", "name": "Permanent TSB" }, "geometry": { "type": "Point", "coordinates": [ -6.2606951, 53.3411935 ] } },
{ "type": "Feature", "properties": { "osm_id": "445431810", "code": 2601, "fclass": "bank", "name": "Permanent TSB" }, "geometry": { "type": "Point", "coordinates": [ -6.2606493, 53.3411498 ] } },
{ "type": "Feature", "properties": { "osm_id": "446781985", "code": 2301, "fclass": "restaurant", "name": "Fallon & Byrne" }, "geometry": { "type": "Point", "coordinates": [ -6.2632917, 53.343118 ] } },
{ "type": "Feature", "properties": { "osm_id": "446781985", "code": 2501, "fclass": "supermarket", "name": "Fallon & Byrne" }, "geometry": { "type": "Point", "coordinates": [ -6.2632917, 53.343118 ] } },
{ "type": "Feature", "properties": { "osm_id": "446782461", "code": 2301, "fclass": "restaurant", "name": "La Maison" }, "geometry": { "type": "Point", "coordinates": [ -6.2629206, 53.3423029 ] } },
{ "type": "Feature", "properties": { "osm_id": "446782627", "code": 2301, "fclass": "restaurant", "name": "Smokin Bones" }, "geometry": { "type": "Point", "coordinates": [ -6.262826, 53.3424 ] } },
{ "type": "Feature", "properties": { "osm_id": "446782704", "code": 2301, "fclass": "restaurant", "name": "L'Gueuleton" }, "geometry": { "type": "Point", "coordinates": [ -6.2643415, 53.3419302 ] } },
{ "type": "Feature", "properties": { "osm_id": "446783098", "code": 2301, "fclass": "restaurant", "name": "Town Bar and Grill" }, "geometry": { "type": "Point", "coordinates": [ -6.2561537, 53.3396287 ] } },
{ "type": "Feature", "properties": { "osm_id": "446783419", "code": 2304, "fclass": "pub", "name": "Anseo" }, "geometry": { "type": "Point", "coordinates": [ -6.264995, 53.3353226 ] } },
{ "type": "Feature", "properties": { "osm_id": "446785628", "code": 2304, "fclass": "pub", "name": "Fidelity" }, "geometry": { "type": "Point", "coordinates": [ -6.2802916, 53.3471016 ] } },
{ "type": "Feature", "properties": { "osm_id": "446785642", "code": 2304, "fclass": "pub", "name": "Frank Ryan’s" }, "geometry": { "type": "Point", "coordinates": [ -6.2800493, 53.3470056 ] } },
{ "type": "Feature", "properties": { "osm_id": "447824516", "code": 2030, "fclass": "recycling", "name": null }, "geometry": { "type": "Point", "coordinates": [ -6.2061598, 53.3699729 ] } },
{ "type": "Feature", "properties": { "osm_id": "447824519", "code": 2501, "fclass": "supermarket", "name": "SuperValu" }, "geometry": { "type": "Point", "coordinates": [ -6.2066829, 53.3705019 ] } },
{ "type": "Feature", "properties": { "osm_id": "447882295", "code": 2101, "fclass": "pharmacy", "name": "Lloyds Pharmacy" }, "geometry": { "type": "Point", "coordinates": [ -6.2069776, 53.3705998 ] } },
{ "type": "Feature", "properties": { "osm_id": "447882302", "code": 2302, "fclass": "fast_food", "name": "Lynch's Chips" }, "geometry": { "type": "Point", "coordinates": [ -6.2048144, 53.3709176 ] } },
{ "type": "Feature", "properties": { "osm_id": "448606595", "code": 2724, "fclass": "memorial", "name": "William Rowan Hamilton Plaque" }, "geometry": { "type": "Point", "coordinates": [ -6.2999561, 53.3730113 ] } },
{ "type": "Feature", "properties": { "osm_id": "449376650", "code": 2251, "fclass": "sports_centre", "name": "YMCA" }, "geometry": { "type": "Point", "coordinates": [ -6.26637, 53.3393811 ] } },
{ "type": "Feature", "properties": { "osm_id": "449722275", "code": 2566, "fclass": "bicycle_rental", "name": "Grantham Street" }, "geometry": { "type": "Point", "coordinates": [ -6.2657314, 53.3340765 ] } },
{ "type": "Feature", "properties": { "osm_id": "451893601", "code": 2901, "fclass": "toilet", "name": null }, "geometry": { "type": "Point", "coordinates": [ -6.2616051, 53.3397223 ] } },
{ "type": "Feature", "properties": { "osm_id": "453141543", "code": 2004, "fclass": "post_box", "name": null }, "geometry": { "type": "Point", "coordinates": [ -6.2366715, 53.2985472 ] } },
{ "type": "Feature", "properties": { "osm_id": "453142072", "code": 2101, "fclass": "pharmacy", "name": "Finnegan's Pharmacy" }, "geometry": { "type": "Point", "coordinates": [ -6.2367251, 53.2983998 ] } },
{ "type": "Feature", "properties": { "osm_id": "453474336", "code": 2907, "fclass": "camera_surveillance", "name": null }, "geometry": { "type": "Point", "coordinates": [ -6.2597798, 53.3340298 ] } },
{ "type": "Feature", "properties": { "osm_id": "457550625", "code": 2004, "fclass": "post_box", "name": null }, "geometry": { "type": "Point", "coordinates": [ -6.2809161, 53.3635786 ] } },
{ "type": "Feature", "properties": { "osm_id": "460016140", "code": 2301, "fclass": "restaurant", "name": "Kinara" }, "geometry": { "type": "Point", "coordinates": [ -6.1829271, 53.360786 ] } },
{ "type": "Feature", "properties": { "osm_id": "460836843", "code": 2004, "fclass": "post_box", "name": null }, "geometry": { "type": "Point", "coordinates": [ -6.2543143, 53.3582824 ] } },
{ "type": "Feature", "properties": { "osm_id": "460836852", "code": 2004, "fclass": "post_box", "name": null }, "geometry": { "type": "Point", "coordinates": [ -6.2522582, 53.3624908 ] } },
{ "type": "Feature", "properties": { "osm_id": "460836870", "code": 2004, "fclass": "post_box", "name": null }, "geometry": { "type": "Point", "coordinates": [ -6.2581834, 53.3556976 ] } },
{ "type": "Feature", "properties": { "osm_id": "460836874", "code": 2004, "fclass": "post_box", "name": null }, "geometry": { "type": "Point", "coordinates": [ -6.2545514, 53.3420252 ] } },
{ "type": "Feature", "properties": { "osm_id": "460836932", "code": 2568, "fclass": "laundry", "name": "Mr. Tubs" }, "geometry": { "type": "Point", "coordinates": [ -6.2793912, 53.3465617 ] } },
{ "type": "Feature", "properties": { "osm_id": "460836976", "code": 2004, "fclass": "post_box", "name": null }, "geometry": { "type": "Point", "coordinates": [ -6.2592911, 53.3534891 ] } },
{ "type": "Feature", "properties": { "osm_id": "460836987", "code": 2004, "fclass": "post_box", "name": null }, "geometry": { "type": "Point", "coordinates": [ -6.2607974, 53.351434 ] } },
{ "type": "Feature", "properties": { "osm_id": "460836990", "code": 2006, "fclass": "telephone", "name": null }, "geometry": { "type": "Point", "coordinates": [ -6.2597602, 53.3534323 ] } },
{ "type": "Feature", "properties": { "osm_id": "461626146", "code": 2004, "fclass": "post_box", "name": null }, "geometry": { "type": "Point", "coordinates": [ -6.2394754, 53.3341946 ] } },
{ "type": "Feature", "properties": { "osm_id": "464038172", "code": 2004, "fclass": "post_box", "name": null }, "geometry": { "type": "Point", "coordinates": [ -6.3566698, 53.3577352 ] } },
{ "type": "Feature", "properties": { "osm_id": "467744840", "code": 2304, "fclass": "pub", "name": "Madigan’s" }, "geometry": { "type": "Point", "coordinates": [ -6.2605498, 53.3514196 ] } },
{ "type": "Feature", "properties": { "osm_id": "467744850", "code": 2512, "fclass": "clothes", "name": "Weavers of Ireland" }, "geometry": { "type": "Point", "coordinates": [ -6.2594282, 53.345895 ] } },
{ "type": "Feature", "properties": { "osm_id": "467744856", "code": 2304, "fclass": "pub", "name": "The Celt" }, "geometry": { "type": "Point", "coordinates": [ -6.2548867, 53.3505727 ] } },
{ "type": "Feature", "properties": { "osm_id": "467744860", "code": 2304, "fclass": "pub", "name": "The Old Storehouse" }, "geometry": { "type": "Point", "coordinates": [ -6.2626746, 53.3451323 ] } },
{ "type": "Feature", "properties": { "osm_id": "467744863", "code": 2004, "fclass": "post_box", "name": "Mespil Road" }, "geometry": { "type": "Point", "coordinates": [ -6.2474315, 53.3332691 ] } },
{ "type": "Feature", "properties": { "osm_id": "467744867", "code": 2301, "fclass": "restaurant", "name": "La Peniche" }, "geometry": { "type": "Point", "coordinates": [ -6.2481124, 53.3334254 ] } },
{ "type": "Feature", "properties": { "osm_id": "467744871", "code": 2011, "fclass": "embassy", "name": "Embassy of Austria" }, "geometry": { "type": "Point", "coordinates": [ -6.2176485, 53.3206116 ] } },
{ "type": "Feature", "properties": { "osm_id": "467744873", "code": 2004, "fclass": "post_box", "name": null }, "geometry": { "type": "Point", "coordinates": [ -6.2217814, 53.3199544 ] } },
{ "type": "Feature", "properties": { "osm_id": "467744876", "code": 2011, "fclass": "embassy", "name": null }, "geometry": { "type": "Point", "coordinates": [ -6.2175041, 53.3199296 ] } },
{ "type": "Feature", "properties": { "osm_id": "467744878", "code": 2004, "fclass": "post_box", "name": null }, "geometry": { "type": "Point", "coordinates": [ -6.2156134, 53.3203544 ] } },
{ "type": "Feature", "properties": { "osm_id": "467744887", "code": 2101, "fclass": "pharmacy", "name": "PURE Pharmacy" }, "geometry": { "type": "Point", "coordinates": [ -6.2660283, 53.3378085 ] } },
{ "type": "Feature", "properties": { "osm_id": "467744892", "code": 2518, "fclass": "beverages", "name": "Carolan's" }, "geometry": { "type": "Point", "coordinates": [ -6.2591207, 53.3591183 ] } },
{ "type": "Feature", "properties": { "osm_id": "467744894", "code": 2568, "fclass": "laundry", "name": "The Laundry Room" }, "geometry": { "type": "Point", "coordinates": [ -6.2577928, 53.3589601 ] } },
{ "type": "Feature", "properties": { "osm_id": "467744914", "code": 2902, "fclass": "bench", "name": null }, "geometry": { "type": "Point", "coordinates": [ -6.2524876, 53.3626926 ] } },
{ "type": "Feature", "properties": { "osm_id": "467744916", "code": 2006, "fclass": "telephone", "name": null }, "geometry": { "type": "Point", "coordinates": [ -6.2518748, 53.3625841 ] } },
{ "type": "Feature", "properties": { "osm_id": "470326863", "code": 2511, "fclass": "convenience", "name": "Spar" }, "geometry": { "type": "Point", "coordinates": [ -6.2572003, 53.3542552 ] } },
{ "type": "Feature", "properties": { "osm_id": "470326898", "code": 2722, "fclass": "museum", "name": "Old Jameson Distillery" }, "geometry": { "type": "Point", "coordinates": [ -6.2770756, 53.3481166 ] } },
{ "type": "Feature", "properties": { "osm_id": "470326920", "code": 2501, "fclass": "supermarket", "name": "ALDI" }, "geometry": { "type": "Point", "coordinates": [ -6.2656528, 53.3505171 ] } },
{ "type": "Feature", "properties": { "osm_id": "470326926", "code": 2302, "fclass": "fast_food", "name": "Burger King" }, "geometry": { "type": "Point", "coordinates": [ -6.2648971, 53.3508005 ] } },
{ "type": "Feature", "properties": { "osm_id": "470326931", "code": 2602, "fclass": "atm", "name": "Ulster Bank" }, "geometry": { "type": "Point", "coordinates": [ -6.2636817, 53.3516162 ] } },
{ "type": "Feature", "properties": { "osm_id": "470326932", "code": 2302, "fclass": "fast_food", "name": "McDonald's" }, "geometry": { "type": "Point", "coordinates": [ -6.2644416, 53.3509526 ] } },
{ "type": "Feature", "properties": { "osm_id": "470326939", "code": 2518, "fclass": "beverages", "name": "Bevvie's" }, "geometry": { "type": "Point", "coordinates": [ -6.2594155, 53.3536376 ] } },
{ "type": "Feature", "properties": { "osm_id": "470374170", "code": 2303, "fclass": "cafe", "name": "Pulse Café" }, "geometry": { "type": "Point", "coordinates": [ -6.2257426, 53.3096603 ] } },
{ "type": "Feature", "properties": { "osm_id": "471185860", "code": 2004, "fclass": "post_box", "name": null }, "geometry": { "type": "Point", "coordinates": [ -6.3271541, 53.3687591 ] } },
{ "type": "Feature", "properties": { "osm_id": "471773797", "code": 2511, "fclass": "convenience", "name": "Spar" }, "geometry": { "type": "Point", "coordinates": [ -6.2348989, 53.3214482 ] } },
{ "type": "Feature", "properties": { "osm_id": "471861762", "code": 2004, "fclass": "post_box", "name": null }, "geometry": { "type": "Point", "coordinates": [ -6.2593537, 53.3482953 ] } },
{ "type": "Feature", "properties": { "osm_id": "471861767", "code": 2031, "fclass": "recycling_glass", "name": null }, "geometry": { "type": "Point", "coordinates": [ -6.2921402, 53.3477042 ] } },
{ "type": "Feature", "properties": { "osm_id": "471861768", "code": 2401, "fclass": "hotel", "name": "Ashling Hotel" }, "geometry": { "type": "Point", "coordinates": [ -6.2909033, 53.3480605 ] } },
{ "type": "Feature", "properties": { "osm_id": "472385252", "code": 2004, "fclass": "post_box", "name": null }, "geometry": { "type": "Point", "coordinates": [ -6.2619246, 53.3386096 ] } },
{ "type": "Feature", "properties": { "osm_id": "472385257", "code": 2004, "fclass": "post_box", "name": null }, "geometry": { "type": "Point", "coordinates": [ -6.2652501, 53.3360716 ] } },
{ "type": "Feature", "properties": { "osm_id": "472767305", "code": 2004, "fclass": "post_box", "name": null }, "geometry": { "type": "Point", "coordinates": [ -6.2446188, 53.3599891 ] } },
{ "type": "Feature", "properties": { "osm_id": "472767309", "code": 2518, "fclass": "beverages", "name": "The Vine Tree" }, "geometry": { "type": "Point", "coordinates": [ -6.2459517, 53.358953 ] } },
{ "type": "Feature", "properties": { "osm_id": "472767316", "code": 2568, "fclass": "laundry", "name": null }, "geometry": { "type": "Point", "coordinates": [ -6.2500263, 53.3570098 ] } },
{ "type": "Feature", "properties": { "osm_id": "474411603", "code": 2251, "fclass": "sports_centre", "name": "Ashtown Equestrian Centre" }, "geometry": { "type": "Point", "coordinates": [ -6.333219, 53.3748848 ] } },
{ "type": "Feature", "properties": { "osm_id": "475352446", "code": 2401, "fclass": "hotel", "name": "Hampton Hotel" }, "geometry": { "type": "Point", "coordinates": [ -6.2428691, 53.3258072 ] } },
{ "type": "Feature", "properties": { "osm_id": "475642361", "code": 2101, "fclass": "pharmacy", "name": "Inchicore Pharmacy" }, "geometry": { "type": "Point", "coordinates": [ -6.3206168, 53.3395659 ] } },
{ "type": "Feature", "properties": { "osm_id": "475642367", "code": 2304, "fclass": "pub", "name": "The Grattan" }, "geometry": { "type": "Point", "coordinates": [ -6.3213412, 53.3394911 ] } },
{ "type": "Feature", "properties": { "osm_id": "476814651", "code": 2302, "fclass": "fast_food", "name": "Romayo's Diner" }, "geometry": { "type": "Point", "coordinates": [ -6.3772661, 53.3869841 ] } },
{ "type": "Feature", "properties": { "osm_id": "477582836", "code": 2004, "fclass": "post_box", "name": null }, "geometry": { "type": "Point", "coordinates": [ -6.3133917, 53.3665638 ] } },
{ "type": "Feature", "properties": { "osm_id": "479092665", "code": 2302, "fclass": "fast_food", "name": "Eddie Rocket's" }, "geometry": { "type": "Point", "coordinates": [ -6.2375379, 53.3221778 ] } },
{ "type": "Feature", "properties": { "osm_id": "479092701", "code": 2302, "fclass": "fast_food", "name": "Romayo's" }, "geometry": { "type": "Point", "coordinates": [ -6.2371973, 53.3224988 ] } },
{ "type": "Feature", "properties": { "osm_id": "479092731", "code": 2101, "fclass": "pharmacy", "name": "Lloyds Pharmacy" }, "geometry": { "type": "Point", "coordinates": [ -6.2376666, 53.3222739 ] } },
{ "type": "Feature", "properties": { "osm_id": "479092745", "code": 2304, "fclass": "pub", "name": "McCloskeys" }, "geometry": { "type": "Point", "coordinates": [ -6.2404236, 53.3244334 ] } },
{ "type": "Feature", "properties": { "osm_id": "479092750", "code": 2101, "fclass": "pharmacy", "name": "Boots" }, "geometry": { "type": "Point", "coordinates": [ -6.2407031, 53.3246025 ] } },
{ "type": "Feature", "properties": { "osm_id": "479092767", "code": 2301, "fclass": "restaurant", "name": "Decemberfest" }, "geometry": { "type": "Point", "coordinates": [ -6.2384848, 53.3228696 ] } },
{ "type": "Feature", "properties": { "osm_id": "479092774", "code": 2004, "fclass": "post_box", "name": "Donnybrook Village" }, "geometry": { "type": "Point", "coordinates": [ -6.235154, 53.3213663 ] } },
{ "type": "Feature", "properties": { "osm_id": "479094489", "code": 2723, "fclass": "monument", "name": "The Arthur Morrison Monument" }, "geometry": { "type": "Point", "coordinates": [ -6.2315307, 53.3195308 ] } },
{ "type": "Feature", "properties": { "osm_id": "479100377", "code": 2302, "fclass": "fast_food", "name": "Zaytoon" }, "geometry": { "type": "Point", "coordinates": [ -6.2673339, 53.3448869 ] } },
{ "type": "Feature", "properties": { "osm_id": "479100381", "code": 2511, "fclass": "convenience", "name": "Spar" }, "geometry": { "type": "Point", "coordinates": [ -6.2672615, 53.3446387 ] } },
{ "type": "Feature", "properties": { "osm_id": "479695447", "code": 2566, "fclass": "bicycle_rental", "name": "Talbot Street" }, "geometry": { "type": "Point", "coordinates": [ -6.2526339, 53.3510448 ] } },
{ "type": "Feature", "properties": { "osm_id": "479695448", "code": 2566, "fclass": "bicycle_rental", "name": "Custom House Quay" }, "geometry": { "type": "Point", "coordinates": [ -6.2480678, 53.3479679 ] } },
{ "type": "Feature", "properties": { "osm_id": "480118876", "code": 2004, "fclass": "post_box", "name": "Jervis St. (Mary Street)" }, "geometry": { "type": "Point", "coordinates": [ -6.2665805, 53.3488295 ] } },
{ "type": "Feature", "properties": { "osm_id": "480606954", "code": 2566, "fclass": "bicycle_rental", "name": "Townsend Street" }, "geometry": { "type": "Point", "coordinates": [ -6.2544119, 53.3459671 ] } },
{ "type": "Feature", "properties": { "osm_id": "480606956", "code": 2566, "fclass": "bicycle_rental", "name": "Ormond Quay Upper" }, "geometry": { "type": "Point", "coordinates": [ -6.268291, 53.3460849 ] } },
{ "type": "Feature", "properties": { "osm_id": "480606957", "code": 2566, "fclass": "bicycle_rental", "name": "Bolton Street" }, "geometry": { "type": "Point", "coordinates": [ -6.2698069, 53.3511654 ] } },
{ "type": "Feature", "properties": { "osm_id": "480606958", "code": 2566, "fclass": "bicycle_rental", "name": "Parnell Street" }, "geometry": { "type": "Point", "coordinates": [ -6.2655278, 53.3508243 ] } },
{ "type": "Feature", "properties": { "osm_id": "480606959", "code": 2511, "fclass": "convenience", "name": "Centra" }, "geometry": { "type": "Point", "coordinates": [ -6.2637597, 53.3512272 ] } },
{ "type": "Feature", "properties": { "osm_id": "480606960", "code": 2566, "fclass": "bicycle_rental", "name": "Princes Street / O'Connell Street" }, "geometry": { "type": "Point", "coordinates": [ -6.2604893, 53.3489938 ] } },
{ "type": "Feature", "properties": { "osm_id": "480606968", "code": 2301, "fclass": "restaurant", "name": "Wallace's Taverna" }, "geometry": { "type": "Point", "coordinates": [ -6.2651641, 53.3463961 ] } },
{ "type": "Feature", "properties": { "osm_id": "480606969", "code": 2303, "fclass": "cafe", "name": "Caffe Cagliostro" }, "geometry": { "type": "Point", "coordinates": [ -6.2651543, 53.3468504 ] } },
{ "type": "Feature", "properties": { "osm_id": "480606986", "code": 2566, "fclass": "bicycle_rental", "name": "Greek Street" }, "geometry": { "type": "Point", "coordinates": [ -6.2730552, 53.3469834 ] } },
{ "type": "Feature", "properties": { "osm_id": "482102109", "code": 2302, "fclass": "fast_food", "name": "Apache Pizza" }, "geometry": { "type": "Point", "coordinates": [ -6.1406286, 53.3855662 ] } },
{ "type": "Feature", "properties": { "osm_id": "482112961", "code": 2302, "fclass": "fast_food", "name": "Di Angelos" }, "geometry": { "type": "Point", "coordinates": [ -6.1674506, 53.3888404 ] } },
{ "type": "Feature", "properties": { "osm_id": "482112992", "code": 2501, "fclass": "supermarket", "name": "Tesco" }, "geometry": { "type": "Point", "coordinates": [ -6.1671502, 53.3886868 ] } },
{ "type": "Feature", "properties": { "osm_id": "482486172", "code": 2004, "fclass": "post_box", "name": null }, "geometry": { "type": "Point", "coordinates": [ -6.3287882, 53.3711894 ] } },
{ "type": "Feature", "properties": { "osm_id": "485521686", "code": 2004, "fclass": "post_box", "name": null }, "geometry": { "type": "Point", "coordinates": [ -6.2497739, 53.3670538 ] } },
{ "type": "Feature", "properties": { "osm_id": "487750491", "code": 2566, "fclass": "bicycle_rental", "name": "Georges Quay" }, "geometry": { "type": "Point", "coordinates": [ -6.2523404, 53.3474776 ] } },
{ "type": "Feature", "properties": { "osm_id": "491319647", "code": 2305, "fclass": "bar", "name": "The Skylon Bar & Grill" }, "geometry": { "type": "Point", "coordinates": [ -6.253083, 53.3727647 ] } },
{ "type": "Feature", "properties": { "osm_id": "491319669", "code": 2305, "fclass": "bar", "name": "Bar@Regency" }, "geometry": { "type": "Point", "coordinates": [ -6.246853, 53.3777169 ] } },
{ "type": "Feature", "properties": { "osm_id": "492643805", "code": 2303, "fclass": "cafe", "name": "Olive's Room" }, "geometry": { "type": "Point", "coordinates": [ -6.1756078, 53.3695368 ] } },
{ "type": "Feature", "properties": { "osm_id": "493042377", "code": 2568, "fclass": "laundry", "name": "Gardiner Street Dry Cleaners" }, "geometry": { "type": "Point", "coordinates": [ -6.256981, 53.3545831 ] } },
{ "type": "Feature", "properties": { "osm_id": "496300868", "code": 2301, "fclass": "restaurant", "name": "Three Story" }, "geometry": { "type": "Point", "coordinates": [ -6.259489, 53.3397909 ] } },
{ "type": "Feature", "properties": { "osm_id": "497022974", "code": 2542, "fclass": "bicycle_shop", "name": "Thinkbike" }, "geometry": { "type": "Point", "coordinates": [ -6.2648824, 53.3255868 ] } },
{ "type": "Feature", "properties": { "osm_id": "497022977", "code": 2542, "fclass": "bicycle_shop", "name": "Life in Motion" }, "geometry": { "type": "Point", "coordinates": [ -6.2774379, 53.3274636 ] } },
{ "type": "Feature", "properties": { "osm_id": "497022993", "code": 2542, "fclass": "bicycle_shop", "name": "Penny Farthing Cycles" }, "geometry": { "type": "Point", "coordinates": [ -6.2654533, 53.3357556 ] } },
{ "type": "Feature", "properties": { "osm_id": "497381658", "code": 2566, "fclass": "bicycle_rental", "name": "Eccles Street" }, "geometry": { "type": "Point", "coordinates": [ -6.2695273, 53.3592023 ] } },
{ "type": "Feature", "properties": { "osm_id": "498686676", "code": 2566, "fclass": "bicycle_rental", "name": "Custom House" }, "geometry": { "type": "Point", "coordinates": [ -6.2544055, 53.3481887 ] } },
{ "type": "Feature", "properties": { "osm_id": "498686677", "code": 2566, "fclass": "bicycle_rental", "name": "Cathal Brugha Street" }, "geometry": { "type": "Point", "coordinates": [ -6.2602355, 53.3522108 ] } },
{ "type": "Feature", "properties": { "osm_id": "503224344", "code": 2303, "fclass": "cafe", "name": "Costcutter" }, "geometry": { "type": "Point", "coordinates": [ -6.2658406, 53.3406175 ] } },
{ "type": "Feature", "properties": { "osm_id": "503224344", "code": 2511, "fclass": "convenience", "name": "Costcutter" }, "geometry": { "type": "Point", "coordinates": [ -6.2658406, 53.3406175 ] } },
{ "type": "Feature", "properties": { "osm_id": "503224346", "code": 2304, "fclass": "pub", "name": "Thomas Moore Inn" }, "geometry": { "type": "Point", "coordinates": [ -6.2654253, 53.3405863 ] } },
{ "type": "Feature", "properties": { "osm_id": "503224354", "code": 2305, "fclass": "bar", "name": "The Jar" }, "geometry": { "type": "Point", "coordinates": [ -6.2657049, 53.3369586 ] } },
{ "type": "Feature", "properties": { "osm_id": "503792316", "code": 2566, "fclass": "bicycle_rental", "name": "Blessington Street" }, "geometry": { "type": "Point", "coordinates": [ -6.268361, 53.356796 ] } },
{ "type": "Feature", "properties": { "osm_id": "503792319", "code": 2566, "fclass": "bicycle_rental", "name": "Mountjoy Square West" }, "geometry": { "type": "Point", "coordinates": [ -6.258579, 53.3564196 ] } },
{ "type": "Feature", "properties": { "osm_id": "503792320", "code": 2566, "fclass": "bicycle_rental", "name": "Fownes Street Upper" }, "geometry": { "type": "Point", "coordinates": [ -6.2633325, 53.344566 ] } },
{ "type": "Feature", "properties": { "osm_id": "505215790", "code": 2566, "fclass": "bicycle_rental", "name": "Portobello Harbour" }, "geometry": { "type": "Point", "coordinates": [ -6.2651159, 53.330367 ] } },
{ "type": "Feature", "properties": { "osm_id": "505215792", "code": 2566, "fclass": "bicycle_rental", "name": "Charlemont Street" }, "geometry": { "type": "Point", "coordinates": [ -6.2599724, 53.3307867 ] } },
{ "type": "Feature", "properties": { "osm_id": "505296842", "code": 2566, "fclass": "bicycle_rental", "name": "Wilton Terrace" }, "geometry": { "type": "Point", "coordinates": [ -6.2525916, 53.3323781 ] } },
{ "type": "Feature", "properties": { "osm_id": "505296850", "code": 2566, "fclass": "bicycle_rental", "name": "Herbert Place" }, "geometry": { "type": "Point", "coordinates": [ -6.2451443, 53.3347454 ] } },
{ "type": "Feature", "properties": { "osm_id": "505296855", "code": 2566, "fclass": "bicycle_rental", "name": "James Street East" }, "geometry": { "type": "Point", "coordinates": [ -6.2481191, 53.3365004 ] } },
{ "type": "Feature", "properties": { "osm_id": "505296859", "code": 2566, "fclass": "bicycle_rental", "name": "Earlsfort Terrace" }, "geometry": { "type": "Point", "coordinates": [ -6.2584874, 53.3343177 ] } },
{ "type": "Feature", "properties": { "osm_id": "505323537", "code": 2566, "fclass": "bicycle_rental", "name": "St. Stephen's Green South" }, "geometry": { "type": "Point", "coordinates": [ -6.2617087, 53.3374503 ] } },
{ "type": "Feature", "properties": { "osm_id": "505323544", "code": 2566, "fclass": "bicycle_rental", "name": "St. Stephen's Green East" }, "geometry": { "type": "Point", "coordinates": [ -6.2560919, 53.3378338 ] } },
{ "type": "Feature", "properties": { "osm_id": "505323550", "code": 2566, "fclass": "bicycle_rental", "name": "Merrion Square West" }, "geometry": { "type": "Point", "coordinates": [ -6.2516978, 53.3399666 ] } },
{ "type": "Feature", "properties": { "osm_id": "505323556", "code": 2566, "fclass": "bicycle_rental", "name": "Merrion Square East" }, "geometry": { "type": "Point", "coordinates": [ -6.2469665, 53.3390801 ] } },
{ "type": "Feature", "properties": { "osm_id": "505357360", "code": 2566, "fclass": "bicycle_rental", "name": "Leinster Street South" }, "geometry": { "type": "Point", "coordinates": [ -6.254359, 53.3421255 ] } },
{ "type": "Feature", "properties": { "osm_id": "505357368", "code": 2566, "fclass": "bicycle_rental", "name": "Molesworth Street" }, "geometry": { "type": "Point", "coordinates": [ -6.2577166, 53.3411808 ] } },
{ "type": "Feature", "properties": { "osm_id": "505357370", "code": 2566, "fclass": "bicycle_rental", "name": "Clarendon Row" }, "geometry": { "type": "Point", "coordinates": [ -6.2625424, 53.3408828 ] } },
{ "type": "Feature", "properties": { "osm_id": "505357374", "code": 2566, "fclass": "bicycle_rental", "name": "High Street" }, "geometry": { "type": "Point", "coordinates": [ -6.2743957, 53.3434397 ] } },
{ "type": "Feature", "properties": { "osm_id": "505363642", "code": 2566, "fclass": "bicycle_rental", "name": "Jervis Street" }, "geometry": { "type": "Point", "coordinates": [ -6.2665402, 53.3482625 ] } },
{ "type": "Feature", "properties": { "osm_id": "507962122", "code": 2303, "fclass": "cafe", "name": "The Cake Cafe" }, "geometry": { "type": "Point", "coordinates": [ -6.266138, 53.3344161 ] } },
{ "type": "Feature", "properties": { "osm_id": "508336667", "code": 2541, "fclass": "car_dealership", "name": "Mount Merrion Cars" }, "geometry": { "type": "Point", "coordinates": [ -6.2193534, 53.2994717 ] } },
{ "type": "Feature", "properties": { "osm_id": "508503555", "code": 2302, "fclass": "fast_food", "name": "Apache Pizza" }, "geometry": { "type": "Point", "coordinates": [ -6.3894828, 53.3888647 ] } },
{ "type": "Feature", "properties": { "osm_id": "512078670", "code": 2303, "fclass": "cafe", "name": "Blue Bird Cafe" }, "geometry": { "type": "Point", "coordinates": [ -6.2218114, 53.3063029 ] } },
{ "type": "Feature", "properties": { "osm_id": "512550966", "code": 2302, "fclass": "fast_food", "name": "Four Star Pizza" }, "geometry": { "type": "Point", "coordinates": [ -6.3079219, 53.340775 ] } },
{ "type": "Feature", "properties": { "osm_id": "515851088", "code": 2303, "fclass": "cafe", "name": "Insomnia" }, "geometry": { "type": "Point", "coordinates": [ -6.3078868, 53.3399203 ] } },
{ "type": "Feature", "properties": { "osm_id": "516031805", "code": 2304, "fclass": "pub", "name": "The South Strand" }, "geometry": { "type": "Point", "coordinates": [ -6.2381779, 53.3443491 ] } },
{ "type": "Feature", "properties": { "osm_id": "518893601", "code": 2501, "fclass": "supermarket", "name": "Spar" }, "geometry": { "type": "Point", "coordinates": [ -6.2822456, 53.3469287 ] } },
{ "type": "Feature", "properties": { "osm_id": "520360955", "code": 2004, "fclass": "post_box", "name": null }, "geometry": { "type": "Point", "coordinates": [ -6.3087126, 53.360952 ] } },
{ "type": "Feature", "properties": { "osm_id": "520363264", "code": 2004, "fclass": "post_box", "name": null }, "geometry": { "type": "Point", "coordinates": [ -6.3366268, 53.3468071 ] } },
{ "type": "Feature", "properties": { "osm_id": "520378184", "code": 2004, "fclass": "post_box", "name": null }, "geometry": { "type": "Point", "coordinates": [ -6.2131875, 53.353865 ] } },
{ "type": "Feature", "properties": { "osm_id": "529655898", "code": 2084, "fclass": "college", "name": "Dominican College" }, "geometry": { "type": "Point", "coordinates": [ -6.1896359, 53.3013603 ] } },
{ "type": "Feature", "properties": { "osm_id": "529655899", "code": 2084, "fclass": "college", "name": "Froebel College of Education" }, "geometry": { "type": "Point", "coordinates": [ -6.1890789, 53.3012006 ] } },
{ "type": "Feature", "properties": { "osm_id": "532685802", "code": 2004, "fclass": "post_box", "name": null }, "geometry": { "type": "Point", "coordinates": [ -6.2397174, 53.3390148 ] } },
{ "type": "Feature", "properties": { "osm_id": "538103859", "code": 2304, "fclass": "pub", "name": "The Hut" }, "geometry": { "type": "Point", "coordinates": [ -6.2725355, 53.3610075 ] } },
{ "type": "Feature", "properties": { "osm_id": "539137657", "code": 2546, "fclass": "computer_shop", "name": "Mactivate" }, "geometry": { "type": "Point", "coordinates": [ -6.3567434, 53.4104945 ] } },
{ "type": "Feature", "properties": { "osm_id": "539821738", "code": 2030, "fclass": "recycling", "name": "Clondalkin Community Recycling Initiative" }, "geometry": { "type": "Point", "coordinates": [ -6.3894726, 53.3307807 ] } },
{ "type": "Feature", "properties": { "osm_id": "540962346", "code": 2902, "fclass": "bench", "name": null }, "geometry": { "type": "Point", "coordinates": [ -6.2582783, 53.3560986 ] } },
{ "type": "Feature", "properties": { "osm_id": "543384713", "code": 2304, "fclass": "pub", "name": "R. McSorley’s" }, "geometry": { "type": "Point", "coordinates": [ -6.2500808, 53.3233007 ] } },
{ "type": "Feature", "properties": { "osm_id": "543384723", "code": 2302, "fclass": "fast_food", "name": "Ranelagh Take Away" }, "geometry": { "type": "Point", "coordinates": [ -6.2556068, 53.3251131 ] } },
{ "type": "Feature", "properties": { "osm_id": "549665002", "code": 2511, "fclass": "convenience", "name": "Spar" }, "geometry": { "type": "Point", "coordinates": [ -6.2646888, 53.3440194 ] } },
{ "type": "Feature", "properties": { "osm_id": "549665009", "code": 2302, "fclass": "fast_food", "name": "Eddie Rocket's" }, "geometry": { "type": "Point", "coordinates": [ -6.266599, 53.344278 ] } },
{ "type": "Feature", "properties": { "osm_id": "549666011", "code": 2528, "fclass": "greengrocer", "name": "Tops in Pops" }, "geometry": { "type": "Point", "coordinates": [ -6.2572583, 53.3543481 ] } },
{ "type": "Feature", "properties": { "osm_id": "552542469", "code": 2004, "fclass": "post_box", "name": null }, "geometry": { "type": "Point", "coordinates": [ -6.2761123, 53.3799884 ] } },
{ "type": "Feature", "properties": { "osm_id": "559292399", "code": 2602, "fclass": "atm", "name": "Bank of Ireland" }, "geometry": { "type": "Point", "coordinates": [ -6.2594538, 53.3451751 ] } },
{ "type": "Feature", "properties": { "osm_id": "559292402", "code": 2602, "fclass": "atm", "name": "Bank of Ireland" }, "geometry": { "type": "Point", "coordinates": [ -6.2594046, 53.3450501 ] } },
{ "type": "Feature", "properties": { "osm_id": "559335996", "code": 2602, "fclass": "atm", "name": "AIB" }, "geometry": { "type": "Point", "coordinates": [ -6.2632051, 53.3454124 ] } },
{ "type": "Feature", "properties": { "osm_id": "559335997", "code": 2602, "fclass": "atm", "name": "AIB" }, "geometry": { "type": "Point", "coordinates": [ -6.2631142, 53.3454152 ] } },
{ "type": "Feature", "properties": { "osm_id": "559485123", "code": 2305, "fclass": "bar", "name": "The Quays Bar" }, "geometry": { "type": "Point", "coordinates": [ -6.2633552, 53.3456434 ] } },
{ "type": "Feature", "properties": { "osm_id": "559485126", "code": 2301, "fclass": "restaurant", "name": "Gallagher's Boxty House" }, "geometry": { "type": "Point", "coordinates": [ -6.2621275, 53.3456973 ] } },
{ "type": "Feature", "properties": { "osm_id": "559854611", "code": 2301, "fclass": "restaurant", "name": "Yamamori Izakaya" }, "geometry": { "type": "Point", "coordinates": [ -6.2642339, 53.3433143 ] } },
{ "type": "Feature", "properties": { "osm_id": "559854612", "code": 2101, "fclass": "pharmacy", "name": "Medipharm" }, "geometry": { "type": "Point", "coordinates": [ -6.2642212, 53.3431063 ] } },
{ "type": "Feature", "properties": { "osm_id": "559854616", "code": 2302, "fclass": "fast_food", "name": "Charlie's Malay & Chinese Cafe" }, "geometry": { "type": "Point", "coordinates": [ -6.2642498, 53.3435547 ] } },
{ "type": "Feature", "properties": { "osm_id": "559854617", "code": 2502, "fclass": "bakery", "name": "Krust Bakery" }, "geometry": { "type": "Point", "coordinates": [ -6.2642558, 53.3436458 ] } },
{ "type": "Feature", "properties": { "osm_id": "559854619", "code": 2301, "fclass": "restaurant", "name": "Acapulco" }, "geometry": { "type": "Point", "coordinates": [ -6.2642538, 53.3436104 ] } },
{ "type": "Feature", "properties": { "osm_id": "559854621", "code": 2303, "fclass": "cafe", "name": "Bear Markt Coffee" }, "geometry": { "type": "Point", "coordinates": [ -6.2642572, 53.3438151 ] } },
{ "type": "Feature", "properties": { "osm_id": "560079327", "code": 2302, "fclass": "fast_food", "name": "Eddie Rocket's" }, "geometry": { "type": "Point", "coordinates": [ -6.2436143, 53.3331323 ] } },
{ "type": "Feature", "properties": { "osm_id": "560470677", "code": 2543, "fclass": "doityourself", "name": "O'Brien's Hardware" }, "geometry": { "type": "Point", "coordinates": [ -6.2519174, 53.3510431 ] } },
{ "type": "Feature", "properties": { "osm_id": "560470678", "code": 2303, "fclass": "cafe", "name": "Insomnia" }, "geometry": { "type": "Point", "coordinates": [ -6.252515, 53.3509444 ] } },
{ "type": "Feature", "properties": { "osm_id": "560602898", "code": 2304, "fclass": "pub", "name": "Martin B. Slattery" }, "geometry": { "type": "Point", "coordinates": [ -6.2659123, 53.3221522 ] } },
{ "type": "Feature", "properties": { "osm_id": "560602926", "code": 2031, "fclass": "recycling_glass", "name": "Dublin City Council Gulistan Terrace Bring Centre" }, "geometry": { "type": "Point", "coordinates": [ -6.2636599, 53.324195 ] } },
{ "type": "Feature", "properties": { "osm_id": "560635045", "code": 2302, "fclass": "fast_food", "name": "Leo Burdock" }, "geometry": { "type": "Point", "coordinates": [ -6.265438, 53.322786 ] } },
{ "type": "Feature", "properties": { "osm_id": "560635046", "code": 2004, "fclass": "post_box", "name": "Rathmines Road (A), Stella" }, "geometry": { "type": "Point", "coordinates": [ -6.2656826, 53.3228666 ] } },
{ "type": "Feature", "properties": { "osm_id": "560642590", "code": 2101, "fclass": "pharmacy", "name": "Lombard Pharmacy" }, "geometry": { "type": "Point", "coordinates": [ -6.2493456, 53.3443586 ] } },
{ "type": "Feature", "properties": { "osm_id": "560648802", "code": 2725, "fclass": "artwork", "name": "Sphere Within Sphere" }, "geometry": { "type": "Point", "coordinates": [ -6.2559019, 53.3437977 ] } },
{ "type": "Feature", "properties": { "osm_id": "561234336", "code": 2515, "fclass": "bookshop", "name": "Bookmart & Gamexchange" }, "geometry": { "type": "Point", "coordinates": [ -6.2527408, 53.350908 ] } },
{ "type": "Feature", "properties": { "osm_id": "562072082", "code": 2304, "fclass": "pub", "name": "74 Talbot" }, "geometry": { "type": "Point", "coordinates": [ -6.2529113, 53.350879 ] } },
{ "type": "Feature", "properties": { "osm_id": "562072093", "code": 2561, "fclass": "hairdresser", "name": "Jack's Barber" }, "geometry": { "type": "Point", "coordinates": [ -6.2528408, 53.3506874 ] } },
{ "type": "Feature", "properties": { "osm_id": "563321029", "code": 2302, "fclass": "fast_food", "name": "McDonald's" }, "geometry": { "type": "Point", "coordinates": [ -6.2652982, 53.3236155 ] } },
{ "type": "Feature", "properties": { "osm_id": "564076260", "code": 2601, "fclass": "bank", "name": "Ranelagh & District Credit Union Limited" }, "geometry": { "type": "Point", "coordinates": [ -6.2555244, 53.3251999 ] } },
{ "type": "Feature", "properties": { "osm_id": "564076265", "code": 2529, "fclass": "beauty_shop", "name": "SISU Clinic" }, "geometry": { "type": "Point", "coordinates": [ -6.2554094, 53.3252812 ] } },
{ "type": "Feature", "properties": { "osm_id": "564076277", "code": 2302, "fclass": "fast_food", "name": "Rasoi" }, "geometry": { "type": "Point", "coordinates": [ -6.2553632, 53.3253274 ] } },
{ "type": "Feature", "properties": { "osm_id": "564118831", "code": 2518, "fclass": "beverages", "name": "Redmonds" }, "geometry": { "type": "Point", "coordinates": [ -6.2554672, 53.3255762 ] } },